id,name,latitude,longitude,geo_groups,meta_description,description
36,Malaysia,4.5693754,102.2656823,"Asia, Indian Ocean","Dive in Malaysia, a top destination for scuba diving enthusiasts. Explore world-renowned dive sites in the South Pacific.","Dive in Malaysia, a top destination for scuba diving enthusiasts. Explore world-renowned dive sites in the South Pacific, boasting vibrant coral reefs, turtles, and diverse marine life. A must-visit for every diver!"
3,Vanuatu,-16.5255069,168.1069154,Oceania,"Discover Vanuatu, a scuba diving paradise in Oceania. Experience the thrill of diving in crystal-clear waters.","Discover Vanuatu, a scuba diving paradise in Oceania. Experience the thrill of diving in crystal-clear waters, encountering unique underwater volcanoes, shipwrecks, and vibrant marine ecosystems. Ideal for adventure divers."
4,Bahrain,26.1551249,50.5344606,"Africa, Asia, Indian Ocean","Scuba dive in Bahrain, where the Arabian Gulf meets the Indian Ocean. A hidden gem for divers.","Scuba dive in Bahrain, where the Arabian Gulf meets the Indian Ocean. A hidden gem for divers seeking rich cultural underwater sites, artificial reefs, and the chance to see unique marine species like the dugong."
5,Indonesia,-2.4833826,117.8902853,"Asia, Indian Ocean",Indonesia offers an unparalleled scuba diving experience in Asia. Dive in to encounter the world's most biodiverse marine habitats.,"Indonesia offers an unparalleled scuba diving experience in Asia. Dive in to encounter the world's most biodiverse marine habitats, from Raja Ampat to Bali, featuring sharks, manta rays, and vibrant coral gardens."
6,Venezuela,8.0018709,-66.1109318,South America,Explore Venezuela's underwater wonders in the Caribbean Sea. A must-visit scuba diving destination.,"Explore Venezuela's underwater wonders in the Caribbean Sea. A must-visit scuba diving destination known for its vibrant coral reefs, diverse marine life, including sea turtles and dolphins, and pristine beaches."
7,Luxembourg,49.8158683,6.1296751,Europe,"Dive in Luxembourg, a hidden scuba diving gem. Explore clear lakes, submerged forests, and historic sites. Discover why it's a top destination for diving.","Luxembourg, often overlooked as a scuba diving destination, is a hidden gem for divers. Its crystal-clear lakes offer peaceful dives amidst submerged forests, creating a captivating underwater landscape. Divers can explore historic sites beneath the surface, making each dive a journey through history. Discover why Luxembourg is gaining recognition as a top destination for diving enthusiasts."
8,Sweden,59.6749712,14.5208584,Europe,"Scuba diving in Sweden, where the Baltic Sea hides shipwrecks and diverse marine life. Dive into adventure and explore the treasures beneath the waves.","Sweden's scuba diving scene is a treasure trove waiting to be explored. Along its Baltic Sea coast, you'll find sunken shipwrecks that tell stories of the past. Dive alongside a diverse range of marine life, from colorful anemones to elusive sea creatures. Sweden's underwater landscapes offer thrilling adventures for divers of all levels, making it a must-visit destination for underwater enthusiasts."
9,São Tomé and Príncipe,0.9713095,7.02255,"Africa, Atlantic Ocean","Sao Tomé and Principe, an untouched scuba diving paradise. Dive into vibrant coral reefs, encounter rare marine species, and explore unspoiled beauty.","Sao Tomé and Principe, tucked away in Africa, is an untouched scuba diving paradise. Immerse yourself in vibrant coral reefs teeming with rare marine species found nowhere else. The unspoiled waters of this tropical haven offer a captivating diving experience. Dive into Sao Tomé and Principe's underwater world and be prepared to be enchanted by its natural beauty."
10,Montenegro,42.9868853,19.5180992,"Europe, Mediterranean Sea","Montenegro's Adriatic coast beckons scuba divers with dramatic cliffs, underwater caves, and hidden treasures. Dive into the Adriatic's wonders.","Montenegro's Adriatic coast is a haven for scuba divers, boasting dramatic underwater landscapes. Dive into intricate underwater caves, navigate through tunnels, and marvel at the breathtaking cliffs beneath the surface. Montenegro's rich marine life and hidden treasures make every dive an unforgettable adventure, promising to leave divers in awe of its underwater wonders."
11,Jordan,31.1667049,36.941628,"Europe, Africa, Mediterranean Sea","Scuba dive in Jordan's Red Sea, home to vibrant coral gardens, historic shipwrecks, and the famous Blue Hole. Discover underwater wonders like never before.","Jordan's Red Sea coastline is a paradise for scuba divers, featuring vibrant coral gardens, historic shipwrecks, and the renowned Blue Hole. Explore the mesmerizing underwater world, encounter schools of colorful fish, and witness the beauty of pristine coral formations. Jordan offers divers an opportunity to explore the mysteries of the deep, making it a top destination for scuba enthusiasts."
12,Dominican Republic,19.0974031,-70.3028026,"North America, Caribbean Sea","Dive into the Dominican Republic's crystal-clear waters, encounter playful dolphins, explore underwater caves, and discover diverse marine ecosystems.","The Dominican Republic's crystal-clear waters are a playground for scuba divers. Encounter playful dolphins, explore fascinating underwater caves, and immerse yourself in diverse marine ecosystems teeming with life. With its warm tropical waters, this destination promises unforgettable underwater experiences for divers of all levels. Explore the vibrant world beneath the surface, where adventure and marine beauty await."
13,Cambodia,12.5433216,104.8144914,Asia,"Dive into Cambodia's coastal treasures. Explore colorful coral reefs, hidden shipwrecks, and underwater temples. Discover where to dive in Cambodia.","Cambodia's coastal waters hold a world of treasures for scuba divers. Explore vibrant coral reefs teeming with life, discover hidden shipwrecks that tell stories of the past, and marvel at the unique opportunity to explore underwater temples. Dive into Cambodia's rich history and diverse marine life, creating lasting memories beneath the surface. Discover where to dive in Cambodia for an unforgettable underwater adventure."
14,Singapore,1.357107,103.8194992,Asia,"Singapore offers urban scuba diving with artificial reefs, bustling marine life, and shipwrecks. Dive into Singapore's underwater surprises.","Singapore offers a unique urban scuba diving experience, where you can explore artificial reefs, encounter bustling marine life, and even discover shipwrecks within the city's waters. Dive into Singapore's underwater surprises, showcasing a blend of modernity and marine beauty. Explore the vibrant marine ecosystems and discover the hidden gems of Singapore's underwater world."
15,Papua New Guinea,-5.6816069,144.2489081,"Oceania, Coral Sea, South Pacific","Dive into the depths of Papua New Guinea's biodiversity-rich waters. Explore colorful coral gardens, encounter sharks, and discover why it's a top destination for scuba diving.","Papua New Guinea is a true underwater paradise, boasting biodiversity-rich waters, vibrant coral gardens, and thrilling encounters with sharks. Explore its pristine reefs, home to a kaleidoscope of marine life. Divers can expect unforgettable moments in this remote and untouched diving destination. Discover why Papua New Guinea is recognized as a top destination for scuba diving, and immerse yourself in the wonders of its underwater world."
16,San Marino,43.9458623,12.458306,"Europe, Mediterranean Sea","Dive into the depths of San Marino's lakes and reservoirs, where submerged history meets serene underwater landscapes. Explore the underwater heritage of this landlocked gem.","Despite being landlocked, San Marino offers unique scuba diving opportunities in its lakes and reservoirs. Delve into the depths to discover submerged history and serene underwater landscapes. San Marino's underwater heritage awaits, providing a distinctive diving experience. Explore the hidden treasures beneath the surface, and uncover the secrets of this landlocked gem's underwater world."
17,Sri Lanka,7.5554942,80.7137847,"Asia, Indian Ocean","Dive in Sri Lanka, a tropical scuba paradise. Explore coral reefs, shipwrecks, and marine biodiversity. Discover where to dive in Sri Lanka.","Sri Lanka, a tropical haven for scuba divers, offers an array of underwater wonders. Immerse yourself in vibrant coral reefs, explore historic shipwrecks, and encounter a diverse range of marine life. Discover where to dive in Sri Lanka and experience the magic of its underwater world."
18,Finland,63.2467777,25.9209164,"Europe, Cold Waters","Dive in Finland's pristine lakes and discover hidden underwater treasures. Explore underwater caves, clear waters, and unique diving experiences.","Finland's pristine lakes offer a unique diving experience. Dive into clear waters, explore underwater caves, and uncover hidden treasures beneath the surface. Finland's underwater landscapes promise unforgettable diving adventures for enthusiasts of all levels."
19,Portugal,39.6621648,-8.1353519,"Europe, Atlantic Ocean","Scuba diving in Portugal, where the Atlantic Ocean reveals shipwrecks and marine beauty. Dive into adventure and explore Portugal's underwater gems.","Portugal's Atlantic coast is a treasure trove for scuba divers. Dive alongside sunken shipwrecks that hold secrets of the past and explore the diverse marine life that inhabits these waters. Portugal's underwater landscapes offer thrilling adventures for divers of all levels, making it an ideal destination for underwater enthusiasts."
20,Colombia,4.099917,-72.9088133,South America,"Dive in Colombia's Caribbean and Pacific coasts, home to colorful coral reefs and diverse marine species. Explore Colombia's top scuba diving destinations.","Colombia's Caribbean and Pacific coasts beckon divers with their vibrant coral reefs and rich marine biodiversity. Dive into these warm waters to encounter colorful fish, sea turtles, and a variety of marine species. Explore Colombia's top scuba diving destinations and be mesmerized by the beauty of its underwater world."
21,Malta,35.8885993,14.4476911,"Europe, Mediterranean Sea","Scuba diving in Malta, where history meets underwater beauty. Explore ancient shipwrecks, clear waters, and a thriving marine ecosystem. Dive into adventure.","Malta is a scuba diver's dream, where history and underwater beauty converge. Explore ancient shipwrecks that have become part of the marine ecosystem, dive into crystal-clear waters, and witness the thriving underwater life. Dive into adventure and discover why Malta is a must-visit destination for scuba enthusiasts."
22,Albania,41.000028,19.9999619,"Europe, Mediterranean Sea","Dive in Albania's unspoiled Adriatic and Ionian coasts, where underwater caves and marine life await. Discover scuba diving in Albania.","Albania's Adriatic and Ionian coasts offer unspoiled beauty for scuba divers. Explore underwater caves, swim among diverse marine life, and uncover the secrets of Albania's underwater world. Discover the hidden gem of scuba diving in Albania and embark on a journey beneath the waves."
23,Grenada,12.1360374,-61.6904045,Caribbean Sea,"Explore Grenada's underwater wonders. Dive into colorful coral gardens, underwater sculptures, and vibrant marine life. Discover scuba diving in Grenada.","Grenada, known as the ""Spice Isle,"" also hides underwater treasures. Dive into vibrant coral gardens, explore unique underwater sculptures, and encounter a diverse range of marine species. Discover the world of scuba diving in Grenada, where spice meets underwater paradise."
24,Saudi Arabia,25.6242618,42.3528328,"Africa, Asia, Red Sea","Scuba diving in Saudi Arabia, where the Red Sea unveils coral reefs, historic shipwrecks, and abundant marine biodiversity. Dive into adventure.","Saudi Arabia's Red Sea coast is a scuba diver's delight, offering vibrant coral reefs, historic shipwrecks, and a wealth of marine biodiversity. Dive into this underwater paradise and explore the mysteries of the deep. Embark on an adventure in scuba diving in Saudi Arabia."
25,Cayman Islands,19.70318225,-79.91746272,"North America, Caribbean Sea","Dive into the Cayman Islands, where crystal-clear waters reveal colorful coral reefs, dramatic walls, and encounters with marine life. Explore scuba diving in the Cayman Islands.","The Cayman Islands, a renowned scuba diving destination, invite you to dive into their crystal-clear waters. Explore vibrant coral reefs, dramatic underwater walls, and thrilling encounters with marine life. Discover the world of scuba diving in the Cayman Islands and experience underwater beauty like no other."
26,Ukraine,49.4871968,31.2718321,Europe,"Discover scuba diving in Ukraine, where clear lakes and quarries offer unique diving experiences. Explore underwater landscapes and the art of diving in Ukraine.","Ukraine's clear lakes and quarries provide unique diving experiences for enthusiasts. Explore underwater landscapes and embrace the art of diving in Ukraine. Whether you're a novice or experienced diver, Ukraine offers opportunities to discover the beauty beneath the surface."
27,Cuba,23.0131338,-80.8328748,"North America, Caribbean Sea, Atlantic Ocean","Dive into Cuba's Caribbean waters, home to vibrant coral reefs, marine life, and historic shipwrecks. Discover scuba diving in Cuba's captivating underwater world.","Cuba's Caribbean waters beckon divers with their vibrant coral reefs, diverse marine life, and historic shipwrecks. Dive into Cuba's captivating underwater world and explore the mysteries of the deep. Discover why Cuba is a top destination for scuba diving enthusiasts."
28,Latvia,56.8406494,24.7537645,Europe,"Scuba diving in Latvia, where freshwater lakes and rivers offer serene diving experiences. Explore underwater tranquility and the hidden beauty of Latvia's waters.",Latvia's freshwater lakes and rivers provide serene diving experiences for those seeking tranquility beneath the surface. Explore the hidden beauty of Latvia's underwater world and discover the peaceful side of scuba diving in this Baltic gem.
29,Algeria,28.0000272,2.9999825,Africa,"Discover scuba diving in Algeria's Mediterranean coastline. Dive into clear waters, explore underwater caves, and encounter marine biodiversity. Explore scuba diving in Algeria.","Algeria's Mediterranean coastline offers scuba divers the chance to explore clear waters, discover underwater caves, and encounter a rich diversity of marine life. Explore the world of scuba diving in Algeria and be enchanted by the beauty of its underwater landscapes."
30,France,46.603354,1.8883335,Europe,"Scuba dive in France, where the Mediterranean and Atlantic coasts reveal diverse marine ecosystems, shipwrecks, and vibrant underwater life. Explore scuba diving in France.","France's Mediterranean and Atlantic coasts invite scuba divers to explore diverse marine ecosystems, historic shipwrecks, and vibrant underwater life. Whether you prefer warm Mediterranean waters or the rugged beauty of the Atlantic, France offers a wide range of scuba diving experiences to discover."
31,Cape Verde,16.0000552,-24.0083947,"Africa, Atlantic Ocean","Dive into Cape Verde's Atlantic waters, home to colorful coral reefs, shipwrecks, and encounters with marine species. Explore scuba diving in Cape Verde.","Cape Verde's Atlantic waters offer scuba divers the chance to explore colorful coral reefs, historic shipwrecks, and thrilling encounters with marine species. Dive into the world of scuba diving in Cape Verde and be mesmerized by the beauty of its underwater world."
32,Slovakia,48.7411522,19.4528646,Europe,"Discover scuba diving in Slovakia's pristine lakes and rivers. Dive into clear waters, explore underwater formations, and embrace the tranquility of Slovakian diving.","Slovakia's pristine lakes and rivers provide a tranquil setting for scuba divers. Dive into clear waters, explore underwater formations, and embrace the unique diving experiences that Slovakia has to offer. Discover the hidden beauty beneath the surface in this European diving destination."
33,Israel,30.8124247,34.8594762,"Europe, Africa, Mediterranean Sea","Scuba dive in Israel, where the Red Sea unveils coral reefs, historic shipwrecks, and abundant marine biodiversity. Dive into adventure.","Israel's Red Sea coast is a scuba diver's delight, offering vibrant coral reefs, historic shipwrecks, and a wealth of marine biodiversity. Dive into this underwater paradise and explore the mysteries of the deep. Embark on an adventure in scuba diving in Israel."
34,Senegal,14.4750607,-14.4529612,"Africa, Atlantic Ocean","Experience scuba diving in Senegal's Atlantic waters, where coral reefs, marine life, and underwater discoveries await. Dive into the beauty of Senegal's underwater world.","Senegal's Atlantic waters offer scuba divers the opportunity to experience vibrant coral reefs, diverse marine life, and exciting underwater discoveries. Dive into the beauty of Senegal's underwater world and be captivated by the wonders that await beneath the waves."
35,Kenya,1.4419683,38.4313975,"Africa, Red Sea","Discover scuba diving in Kenya's Indian Ocean waters, home to coral reefs, diverse marine species, and underwater adventures. Explore scuba diving in Kenya.","Kenya's Indian Ocean waters beckon divers with their coral reefs, diverse marine species, and thrilling underwater adventures. Dive into the world of scuba diving in Kenya and explore the incredible beauty of its underwater landscapes. Discover why Kenya is a top destination for scuba diving enthusiasts."
37,Iceland,64.9841821,-18.1059013,Cold Waters,"Explore scuba diving in Iceland's crystal-clear waters, where underwater geology, caves, and marine life await. Dive into adventure in Iceland's underwater world.","Iceland's crystal-clear waters provide a unique scuba diving experience. Explore underwater geology, venture into caves, and encounter marine life in Iceland's pristine waters. Dive into adventure and discover the mesmerizing underwater world of Iceland."
38,Madagascar,-18.77914875,46.71217162,Africa,Dive in Madagascar and explore the underwater wonders of the Indian Ocean. A scuba diver's paradise with diverse marine life. Discover unique dive sites and vibrant coral reefs.,"Madagascar, a true scuba diving gem in the Indian Ocean. Immerse yourself in the vibrant marine world, encounter colorful coral reefs, and spot unique species. Explore pristine dive sites and experience the thrill of diving in Madagascar. Discover where to dive in Madagascar for an unforgettable underwater adventure."
39,Kuwait,29.2733964,47.4979476,"Africa, Asia",Discover scuba diving in Kuwait. An emerging dive destination in the Arabian Gulf. Explore wreck dives and marine biodiversity.,"Kuwait, an emerging scuba diving destination in the Arabian Gulf. Dive into history with wreck dives and witness the flourishing marine biodiversity. Experience the charm of diving in Kuwait's clear waters. Discover where to dive in Kuwait for an unforgettable underwater adventure."
40,Bosnia and Herzegovina,44.3053476,17.5961467,"Europe, Mediterranean Sea","Dive in Bosnia and Herzegovina, a hidden gem for freshwater diving in Europe. Explore stunning underwater caves and clear lakes.","Bosnia and Herzegovina, a hidden treasure for freshwater diving in Europe. Delve into the depths of clear lakes and explore mesmerizing underwater caves. Experience the magic of scuba diving in this unique European destination. Discover where to dive in Bosnia and Herzegovina for an unforgettable underwater adventure."
41,Philippines,12.7503486,122.7312101,Asia,"Explore scuba diving in the Philippines, a tropical paradise for divers. Crystal-clear waters, diverse marine life, and vibrant coral reefs await.","The Philippines, a tropical haven for scuba divers. Dive into crystal-clear waters teeming with diverse marine life. Immerse yourself in the beauty of vibrant coral reefs. Discover where to dive in the Philippines for an unforgettable underwater adventure."
42,United States,39.7837304,-100.445882,North America,"Dive in the United States and experience diverse dive sites from coast to coast. From Florida's wrecks to California's kelp forests, there's something for every diver.","The United States, a diverse scuba diving destination with a range of dive sites from coast to coast. Explore Florida's historic wrecks or dive into California's majestic kelp forests. Discover where to dive in the United States for an unforgettable underwater adventure."
43,Cyprus,34.9823018,33.1451285,"Europe, Africa, Mediterranean Sea","Discover scuba diving in Cyprus, an island of Mediterranean beauty and underwater exploration. Explore shipwrecks, caves, and abundant marine life.","Cyprus, an enchanting island for scuba divers in the heart of the Mediterranean. Dive into history with shipwrecks, explore mysterious underwater caves, and encounter abundant marine life. Discover where to dive in Cyprus for an unforgettable underwater adventure."
44,Turkey,38.9597594,34.9249653,"Europe, Mediterranean Sea",Dive in Turkey and explore the rich underwater world where East meets West. Discover ancient ruins beneath the waves and vibrant coral reefs.,"Turkey, where the richness of the underwater world meets the ancient world. Dive among submerged ruins and vibrant coral reefs. Experience the cultural and natural wonders of diving in Turkey. Discover where to dive in Turkey for an unforgettable underwater adventure."
45,Zimbabwe,-18.4554963,29.7468414,Africa,"Explore scuba diving in Zimbabwe, a landlocked country with surprising diving opportunities in its freshwater lakes. Unique underwater experiences await.","Zimbabwe, a landlocked country with unexpected scuba diving opportunities in its freshwater lakes. Embark on unique underwater adventures and explore the hidden treasures beneath the surface. Discover where to dive in Zimbabwe for an unforgettable underwater experience."
46,China,35.000074,104.999927,Asia,"Dive in China and discover a world of underwater wonders in its seas and lakes. From the South China Sea to Qinghai Lake, diverse diving experiences await.","China, a vast country with a world of underwater wonders in its seas and lakes. Explore the South China Sea or dive into the depths of Qinghai Lake. Discover diverse diving experiences in China's diverse aquatic landscapes. Discover where to dive in China for an unforgettable underwater adventure."
47,Saint Lucia,13.8250489,-60.975036,Caribbean Sea,"Experience scuba diving in Saint Lucia, a Caribbean paradise with pristine reefs, colorful marine life, and warm waters. Explore the beauty of the Caribbean underwater.","Saint Lucia, a Caribbean paradise for scuba divers. Immerse yourself in warm waters, vibrant coral reefs, and an array of colorful marine life. Discover the underwater beauty of Saint Lucia and where to dive for an unforgettable Caribbean experience."
48,Armenia,40.7696272,44.6736646,Asia,Dive in Armenia and discover a unique freshwater diving experience. Explore stunning lakes and dive into history.,"Armenia, a hidden gem for freshwater divers. Delve into the depths of stunning lakes and uncover historical treasures beneath the surface. Experience the thrill of diving in Armenia's clear waters. Discover where to dive in Armenia for a one-of-a-kind underwater adventure."
49,Belarus,53.4250605,27.6971358,Europe,"Explore scuba diving in Belarus, a land of enchanting lakes and underwater mysteries. Dive into crystal-clear waters and discover hidden wonders.","Belarus, a land of enchanting lakes and underwater mysteries. Immerse yourself in crystal-clear waters and uncover hidden wonders beneath the surface. Experience the magic of diving in Belarus. Discover where to dive in Belarus for an unforgettable underwater adventure."
50,Qatar,25.3336984,51.2295295,"Africa, Asia, Indian Ocean",Dive in Qatar and experience the beauty of the Arabian Gulf. Explore vibrant coral reefs and underwater diversity.,"Qatar, where the beauty of the Arabian Gulf meets scuba divers. Explore vibrant coral reefs and encounter a diverse underwater world. Experience the charm of diving in Qatar's clear waters. Discover where to dive in Qatar for an unforgettable underwater adventure."
51,Netherlands,52.2434979,5.6343227,Europe,"Discover scuba diving in the Netherlands, a country with surprising dive sites in its freshwater lakes and North Sea.","The Netherlands, a country with surprising dive sites in freshwater lakes and the North Sea. Dive into clear waters and explore unique underwater landscapes. Discover where to dive in the Netherlands for an unforgettable underwater adventure."
52,Australia,-24.7761086,134.755,Oceania,"Dive in Australia, a mecca for scuba divers. Explore the Great Barrier Reef, vibrant marine life, and breathtaking dive sites.","Australia, a scuba diver's mecca with the Great Barrier Reef and breathtaking dive sites. Immerse yourself in vibrant marine life and explore the wonders of the underwater world. Discover where to dive in Australia for an unforgettable underwater adventure."
53,Dominica,19.0974031,-70.3028026,"North America, Caribbean Sea","Discover scuba diving in Dominica, the Nature Isle of the Caribbean. Explore volcanic underwater formations, pristine reefs, and marine biodiversity.","Dominica, the Nature Isle of the Caribbean, a haven for scuba divers. Explore volcanic underwater formations, pristine reefs, and abundant marine life. Experience the natural beauty of diving in Dominica. Discover where to dive in Dominica for an unforgettable underwater adventure."
54,Serbia,44.1534121,20.55144,"Europe, Mediterranean Sea",Dive in Serbia and explore freshwater wonders in its rivers and lakes. Discover unique diving experiences and hidden treasures.,"Serbia, a land of freshwater wonders in rivers and lakes. Dive into unique underwater experiences and uncover hidden treasures beneath the surface. Experience the thrill of diving in Serbia's clear waters. Discover where to dive in Serbia for an unforgettable underwater adventure."
55,Mauritius,-20.2759451,57.5703566,Africa,"Explore scuba diving in Mauritius, a tropical paradise with coral reefs, shipwrecks, and clear waters.","Mauritius, a tropical paradise for scuba divers. Immerse yourself in clear waters, explore vibrant coral reefs, and discover fascinating shipwrecks. Experience the beauty of diving in Mauritius. Discover where to dive in Mauritius for an unforgettable underwater adventure."
56,Libya,26.8234472,18.1236723,Africa,Dive in Libya and explore the Mediterranean's underwater mysteries. Discover historic wrecks and vibrant marine life.,"Libya, where the Mediterranean's underwater mysteries await scuba divers. Dive into history with historic wrecks and encounter vibrant marine life. Experience the allure of diving in Libya's clear waters. Discover where to dive in Libya for an unforgettable underwater adventure."
57,Spain,39.3260685,-4.8379791,"Europe, Atlantic Ocean","Discover scuba diving in Spain, a diverse destination with Mediterranean and Atlantic coastlines. Explore wrecks, caves, and rich marine ecosystems.","Spain, a diverse scuba diving destination with Mediterranean and Atlantic coastlines. Dive into wrecks, explore mysterious caves, and encounter rich marine ecosystems. Experience the culture and natural beauty of diving in Spain. Discover where to dive in Spain for an unforgettable underwater adventure."
58,United Arab Emirates,24.0002488,53.9994829,"Africa, Asia, Indian Ocean",Dive into the wonders of the United Arab Emirates' underwater world in the heart of the Arabian Gulf. Explore vibrant coral gardens and encounter a diverse range of marine life.,The United Arab Emirates beckons scuba enthusiasts to immerse themselves in its underwater wonders amidst the beauty of the Arabian Gulf. Explore lush coral gardens and come face-to-face with a diverse array of marine species. Experience the allure of diving in the UAE's crystal-clear waters.
59,Georgia,41.6809707,44.0287382,Asia,"Embark on an unforgettable scuba diving journey in Georgia, renowned for its unique freshwater diving opportunities. Dive into pristine lakes and uncover hidden treasures beneath the surface.","Georgia, a land of enchanting freshwater diving experiences, invites you to delve into the depths of its pristine lakes and unveil the hidden marvels that lie beneath. Experience the enchantment of diving in Georgia's clear waters."
60,Belgium,50.6402809,4.6667145,Europe,"Belgium offers scuba divers an enchanting experience with European freshwater lakes and the beauty of the North Sea. Discover historic wrecks, diverse marine life, and underwater beauty.","Belgium, a land of enchantment for scuba divers, provides a gateway to European freshwater lakes and the captivating North Sea. Explore historic wrecks, encounter diverse marine life, and embrace the wonders of underwater diversity."
61,Guernsey,49.4566233,-2.5822348,Europe,"Explore the underwater wonders of Guernsey, a hidden gem in the English Channel. Dive into historic shipwrecks, explore mysterious caves, and witness thriving marine ecosystems.","Guernsey, a concealed treasure in the English Channel, awaits scuba divers to explore historic shipwrecks, navigate enigmatic caves, and witness the thriving marine ecosystems beneath the waves. Experience the natural beauty of diving in Guernsey."
62,Monaco,43.7323492,7.4276832,"Europe, Atlantic Ocean","Monaco invites you to a world of opulent underwater exploration in the Mediterranean. Dive into vibrant reefs, encounter marine life, and uncover hidden treasures beneath the azure waves.","Monaco, where opulence intertwines with underwater exploration in the Mediterranean, invites divers to immerse themselves in vibrant reefs, come face-to-face with marine life, and unveil hidden treasures beneath the azure waves. Experience the luxury of diving in Monaco's crystal-clear waters."
63,Taiwan,23.9739374,120.9820179,Asia,"Taiwan offers scuba divers an island of diverse underwater experiences. Immerse yourself in clear waters, explore stunning coral reefs, and encounter unique marine species.","Taiwan, an island that promises scuba divers diverse underwater experiences, welcomes you to clear waters, stunning coral reefs, and encounters with unique marine species. Experience the captivating beauty of diving in Taiwan."
64,Solomon Islands,-8.7053941,159.1070694,"Oceania, Coral Sea, South Pacific","Dive into the untouched beauty of the Solomon Islands in the Pacific Ocean. Discover remote dive sites, vibrant marine life, and pristine coral reefs that await your exploration.","The Solomon Islands, an unspoiled haven for scuba divers in the pristine Pacific Ocean, beckon you to discover remote dive sites, encounter vibrant marine life, and explore pristine coral reefs beneath the azure waters. Experience the serenity of diving in the Solomon Islands' crystal-clear waters."
65,Thailand,14.8971921,100.83273,Asia,"Thailand, a tropical paradise for scuba divers, boasts azure waters and vibrant underwater ecosystems. Dive into enchanting coral gardens, explore historic wrecks, and encounter exotic marine species.","Thailand, a tropical haven for scuba divers, reveals azure waters and vibrant underwater ecosystems. Immerse yourself in enchanting coral gardens, explore the secrets of historic wrecks, and come face-to-face with exotic marine species. Experience the allure of diving in Thailand's crystal-clear waters."
66,Niue,-19.0536414,-169.861341,South America,"Niue, an untouched South Pacific paradise for scuba divers, invites you to immerse yourself in crystal-clear waters. Explore dramatic drop-offs and encounter unique marine life in this serene haven.","Niue, an unspoiled South Pacific sanctuary for scuba enthusiasts, calls upon you to immerse yourself in its crystal-clear waters. Discover dramatic drop-offs and encounter unique marine life in this tranquil haven beneath the waves. Experience the serenity of diving in Niue's clear waters."
67,El Salvador,13.8000382,-88.9140683,Caribbean Sea,"El Salvador, a Central American gem along its Pacific coast, offers warm waters, volcanic underwater formations, and diverse marine life. Dive into this natural beauty for an unforgettable underwater adventure.","El Salvador, a Central American treasure along its Pacific coast, entices you with warm waters, dramatic volcanic underwater formations, and a rich tapestry of marine life. Dive into this natural wonderland for an unforgettable underwater adventure. Experience the beauty of diving in El Salvador's crystal-clear waters."
68,Italy,42.6384261,12.674297,"Europe, Mediterranean Sea","Dive into Italy's Mediterranean beauty for scuba enthusiasts. Explore vibrant coral reefs, historic wrecks, and diverse marine life. Experience the allure of Italy's crystal-clear waters.","Italy, where the Mediterranean meets scuba divers with vibrant coral reefs, historic wrecks, and a diverse marine ecosystem. Immerse yourself in the allure of diving in Italy's crystal-clear waters. Discover the underwater wonders of this captivating destination."
69,Uruguay,-32.8755548,-56.0201525,South America,"Explore Uruguay's pristine waters, discover underwater caves, colorful marine life, and unique diving experiences along the Atlantic coast. Dive into Uruguay's aquatic charm.","Uruguay, a South American gem for scuba divers, invites you to explore pristine waters, underwater caves, colorful marine life, and unique diving experiences along the Atlantic coast. Immerse yourself in Uruguay's aquatic charm and discover its underwater treasures."
70,Oman,21.0000287,57.0036901,"Africa, Asia, Indian Ocean","Oman offers scuba enthusiasts clear waters, vibrant coral reefs, and diverse marine species in the Arabian Gulf and Indian Ocean. Dive into Oman's underwater paradise.","Oman, a Middle Eastern paradise for scuba divers, beckons with clear waters, vibrant coral reefs, and a diverse array of marine species in the Arabian Gulf and Indian Ocean. Dive into Oman's underwater paradise and explore its vibrant marine world."
71,Fiji,-18.1239696,179.0122737,Oceania,"Explore Fiji's clear waters, vibrant coral gardens, and abundant marine life in the South Pacific's tropical paradise. Dive into Fiji's underwater wonders.","Fiji, a South Pacific haven for scuba divers, immerses you in crystal-clear waters, vibrant coral gardens, and an abundance of marine life. Dive into Fiji's underwater wonders and experience the magic of this tropical paradise beneath the waves."
72,United Kingdom,54.7023545,-3.2765753,Europe,"Dive into the maritime history of the United Kingdom. Explore shipwrecks, underwater caves, and thriving marine ecosystems in the waters surrounding the British Isles. Discover the underwater beauty of the UK.","The United Kingdom invites scuba divers to delve into its rich maritime history. Explore shipwrecks, navigate underwater caves, and witness thriving marine ecosystems in the waters surrounding the British Isles. Discover the underwater beauty of the UK and experience its diverse dive sites."
73,Palau,5.3783537,132.9102573,Asia,"Palau, a Micronesian paradise, offers scuba divers a glimpse into an underwater wonderland. Dive into pristine waters, explore coral atolls, and encounter a dazzling array of marine species. Dive into the magic of Palau.","Palau, a Micronesian jewel, entices scuba enthusiasts with pristine waters, coral atolls, and a dazzling array of marine species in an underwater wonderland. Dive into the magic of Palau and discover its vibrant marine life and captivating dive sites."
74,Germany,51.1638175,10.4478313,Europe,"Dive into Germany's freshwater treasures, from clear lakes to ancient quarries. Explore unique underwater landscapes, historic sites, and an unexpected world of scuba diving adventures in the heart of Europe. Explore Germany's dive sites.","Germany, a European gem, reveals freshwater treasures to scuba divers, from clear lakes to ancient quarries. Explore unique underwater landscapes, discover historic sites, and immerse yourself in an unexpected world of scuba diving adventures. Explore Germany's dive sites and experience its cultural and natural wonders."
75,Canada,61.0666922,-107.991707,Cold Waters,"Canada, a land of stunning natural beauty, offers scuba divers a unique opportunity to explore its freshwater lakes and coastal wonders. Dive into crystal-clear waters, uncover hidden shipwrecks, and encounter diverse marine life. Dive into Canada's aquatic wonders.","Canada, a land of breathtaking natural beauty, extends an invitation to scuba enthusiasts to dive into crystal-clear waters, uncover hidden shipwrecks, and come face-to-face with diverse marine life in its freshwater lakes and coastal wonders. Dive into Canada's aquatic wonders and explore the beauty of its underwater world."
76,South Korea,36.638392,127.6961188,Asia,"South Korea, a country of diverse experiences, invites scuba divers to explore its coastal waters and underwater treasures. Dive into clear seas, discover historic sites, and encounter marine diversity in this East Asian destination. Dive into South Korea's underwater world.","South Korea, a country of diverse experiences, beckons scuba divers to explore its coastal waters and underwater treasures. Dive into clear seas, discover historic sites, and encounter a rich tapestry of marine diversity in this East Asian destination. Dive into South Korea's underwater world and explore its captivating dive sites."
77,Barbados,13.1500331,-59.5250305,"North America, Caribbean Sea","Barbados, a Caribbean paradise, offers scuba divers warm waters, vibrant coral reefs, and a relaxed island atmosphere. Dive into crystal-clear seas, encounter marine life, and explore the underwater beauty of this tropical haven. Dive into Barbados' aquatic charm.","Barbados, a Caribbean jewel, entices scuba enthusiasts with warm waters, vibrant coral reefs, and a laid-back island atmosphere. Dive into crystal-clear seas, encounter an array of marine life, and immerse yourself in the underwater beauty of this tropical haven. Dive into Barbados' aquatic charm and discover its underwater treasures."
78,Sint Maarten,18.0423736,-63.0549948,"North America, Caribbean Sea","Dive in Sint Maarten for an exceptional scuba diving experience. Discover vibrant marine life and crystal-clear waters, making it a top destination for diving enthusiasts.","Sint Maarten, with its clear turquoise waters, offers a stunning scuba diving experience. Dive in and explore vibrant coral reefs, diverse marine life, and historical shipwrecks. It's a perfect destination for diving, providing unforgettable underwater adventures. Dive in Sint Maarten for unique marine biodiversity and serene underwater landscapes."
79,Saint Vincent and the Grenadines,12.90447,-61.2765569,Caribbean Sea,Scuba diving in Saint Vincent and the Grenadines is a dream. Explore lush coral gardens and abundant sea life in this prime diving destination.,"The waters of Saint Vincent and the Grenadines are a haven for scuba divers. Dive in and be mesmerized by colorful coral gardens, diverse fish species, and the warm, welcoming Caribbean Sea. A premier destination for diving, offering unique underwater landscapes and rich marine fauna."
80,Marshall Islands,8.230817,167.7953224,Asia,"Discover the underwater paradise of the Marshall Islands. A must-visit destination for diving, offering vibrant marine ecosystems and historic wrecks.","The Marshall Islands, a hidden gem for scuba diving, boasts spectacular underwater scenery. Dive in and explore pristine coral atolls, abundant sea life, and remnants of history underwater. Ideal for both novice and experienced divers seeking a unique destination for diving."
81,Argentina,-34.9964963,-64.9672817,South America,"Experience the thrill of scuba diving in Argentina. From river diving to ocean explorations, it's a diverse and exciting destination for diving.","Argentina offers a unique scuba diving experience with its varied underwater terrains. Dive in and encounter a mix of river and oceanic ecosystems, home to fascinating marine life. Perfect for those who seek diversity in their diving destinations. Discover why Argentina is a must-visit for diving aficionados."
82,Cook Islands,-19.99697155,-157.7858714,South America,Dive in the Cook Islands for a spectacular scuba diving journey. Encounter vibrant marine life and stunning underwater vistas in this top diving destination.,"The Cook Islands, a paradise for scuba divers, offer clear waters and abundant sea life. Dive in to experience majestic coral reefs and a plethora of marine species. A destination for diving that combines natural beauty with rich underwater biodiversity. Ideal for memorable underwater explorations."
83,Slovenia,46.1199444,14.8153333,Europe,"Slovenia, a hidden gem for scuba diving, offers unique freshwater dive sites. Dive in its mysterious underwater caves and lakes, a different kind of diving destination.","Dive in Slovenia and discover a unique scuba diving experience in its freshwater lakes and caves. Explore underwater wonders different from typical sea dives. Slovenia offers a distinctive destination for diving, with its clear lakes and intriguing cave systems. Perfect for divers seeking a unique underwater adventure."
84,Egypt,26.2540493,29.2675469,Africa,"Egypt's Red Sea is a scuba diving paradise. Dive in for world-class reefs and vibrant marine life, making it a top global destination for diving.","Dive in Egypt and experience the Red Sea's unparalleled underwater beauty. Famous for its vibrant coral reefs and diverse marine life, Egypt offers a top-notch destination for diving. From the historic SS Thistlegorm wreck to the Ras Mohammed National Park, the Red Sea is a diver's dream."
85,Bahamas,24.7736546,-78.0000547,"North America, Caribbean Sea, Atlantic Ocean","The Bahamas, renowned for its clear waters and rich marine life, offers an unparalleled scuba diving experience. A top destination for diving enthusiasts.","Dive in the Bahamas to explore its spectacular underwater world. Known for its crystal-clear waters, vibrant coral reefs, and diverse marine life, the Bahamas is a premier destination for diving. Experience unique dive sites like the Great Blue Hole and swim with an array of sea creatures."
86,India,22.3511148,78.6677428,"Asia, Indian Ocean","India's diverse coasts offer a unique scuba diving experience. From coral reefs to shipwrecks, it's an exciting destination for diving enthusiasts.","Dive in India and discover a variety of underwater landscapes. From the vibrant coral reefs of the Andaman Islands to the historical shipwrecks off the coast, India provides a rich and diverse destination for diving. Its waters are home to a plethora of marine life, making it a must-visit for divers."
87,Iran,32.6475314,54.5643516,"Africa, Asia","Iran's unexplored waters offer a unique scuba diving experience. Dive in the Persian Gulf for pristine reefs and diverse marine life, a hidden diving destination.","Dive in Iran and explore the hidden treasures of the Persian Gulf. Known for its pristine coral reefs and abundant marine life, Iran is an emerging destination for diving. Experience the tranquility of its underwater world, away from crowded dive spots. A must-visit for divers seeking undiscovered underwater beauty."
88,Saint Kitts and Nevis,17.250512,-62.6725973,"North America, Caribbean Sea","Discover the unique underwater world of Saint Kitts and Nevis, a top destination for diving with its vibrant marine life and crystal-clear Caribbean waters.","Saint Kitts and Nevis offer scuba divers a breathtaking experience with its stunning coral reefs and abundant marine life. Dive in to explore a world of underwater beauty in the Caribbean Sea, making it a prime destination for diving enthusiasts seeking vibrant marine biodiversity."
89,Chile,-31.7613365,-71.3187697,South America,"Dive in Chile for an unparalleled scuba diving adventure. From the cold waters of the Pacific to the unique marine biodiversity, Chile is a diverse diving destination.","Chile's extensive coastline provides a unique scuba diving experience. Dive in to encounter a range of marine environments, from cold Pacific currents to rich underwater ecosystems. A must-visit for divers looking for a distinctive destination with varied marine life and underwater terrains."
90,Estonia,58.7523778,25.3319078,Europe,Estonia's Baltic Sea coast offers a unique diving experience. Explore historic shipwrecks and underwater forests in this serene diving destination.,"Dive in Estonia to discover the hidden treasures of the Baltic Sea. Known for its well-preserved shipwrecks and underwater forests, Estonia presents a peaceful yet intriguing destination for diving. Ideal for divers interested in history and natural underwater beauty."
91,Vietnam,15.9266657,107.9650855,Asia,Vietnam's tropical waters are a paradise for scuba divers. Dive in to explore vibrant coral reefs and an abundance of marine life in this exotic diving destination.,"Vietnam, with its warm, clear waters, is a haven for scuba diving. Dive in to experience the rich coral reefs and diverse marine species of the South China Sea. A popular destination for diving, offering stunning underwater landscapes and a chance to explore the underwater wonders of Southeast Asia."
92,South Africa,-28.8166236,24.991639,Africa,"Experience the thrill of diving in South Africa. From shark encounters to vibrant coral reefs, it's a world-class destination for diving adventures.","South Africa's diverse marine ecosystems offer an exhilarating scuba diving experience. Dive in to encounter sharks, vibrant coral reefs, and the famous sardine run. A top destination for diving, providing unique and unforgettable underwater experiences for adventurous divers."
93,Peru,-6.8699697,-75.0458515,South America,Peru's Pacific coast offers an exciting scuba diving experience. Dive in to explore its rich marine biodiversity and unique underwater landscapes.,"Dive in Peru and discover the wonders of the Pacific Ocean. Known for its diverse marine life and unique underwater topography, Peru provides a captivating destination for diving. Ideal for those seeking to explore different marine ecosystems and encounter a variety of sea creatures."
94,Isle of Man,54.1936805,-4.5591148,Europe,"Explore the hidden underwater gems of the Isle of Man. Dive in its waters for an exceptional scuba diving experience, with rich marine life and scenic landscapes.","The Isle of Man presents a unique scuba diving destination with its clear waters and diverse marine habitats. Dive in to explore kelp forests, marine life, and underwater caves. A serene and picturesque destination for diving, perfect for those seeking a peaceful underwater adventure."
95,Kazakhstan,48.1012954,66.7780818,Asia,Kazakhstan's lakes offer a unique inland diving experience. Dive in to explore the mysterious underwater world of these serene and beautiful lakes.,"Kazakhstan, while landlocked, provides a unique scuba diving experience in its lakes. Dive in to discover the tranquil underwater world of Lake Balkhash and other freshwater bodies. An unconventional destination for diving, ideal for those looking to explore serene and untouched underwater environments."
96,Japan,36.5748441,139.2394179,Asia,"Japan's waters are a paradise for scuba divers. Dive in to explore its rich marine life, stunning coral reefs, and historic wrecks, making it a top diving destination.","Dive in Japan and experience the extraordinary underwater world of the Pacific Ocean. With its diverse marine life, beautiful coral reefs, and historic shipwrecks, Japan offers a unique and captivating destination for diving. Ideal for divers who appreciate both natural beauty and historical intrigue."
97,Denmark,55.670249,10.3333283,Europe,"Discover Denmark's unique underwater landscapes. Dive in its seas to explore hidden wrecks and vibrant marine life, making it a fascinating destination for diving.","Denmark's seas offer a unique scuba diving experience with their hidden shipwrecks and rich marine life. Dive in to explore the mysteries of the North Sea and the Baltic Sea, providing a diverse and intriguing destination for diving enthusiasts interested in both history and marine biodiversity."
98,Jamaica,18.1850507,-77.3947693,"North America, Caribbean Sea",Dive in Jamaica for an unforgettable scuba diving experience. Explore vibrant coral reefs and diverse marine life in this Caribbean diving paradise.,"Jamaica's crystal-clear waters and vibrant marine ecosystems make it a top destination for diving. Dive in to discover stunning coral reefs, diverse marine life, and warm Caribbean waters, offering an idyllic setting for both novice and experienced divers."
99,Trinidad and Tobago,10.7466905,-61.0840075,Caribbean Sea,"Trinidad and Tobago offer a unique scuba diving adventure with their rich marine biodiversity and stunning coral gardens, a true Caribbean diving gem.","Dive in Trinidad and Tobago to explore their spectacular underwater world. With vibrant coral gardens and a myriad of marine species, these islands provide an exceptional diving experience in the Caribbean, ideal for those seeking rich biodiversity and captivating underwater landscapes."
100,Mozambique,-19.302233,34.9144977,Africa,Mozambique's waters are a scuba diving haven. Dive in to encounter majestic marine megafauna and pristine coral reefs in this Indian Ocean destination.,"Dive in Mozambique for an extraordinary scuba diving experience. Its Indian Ocean waters are home to majestic marine megafauna like whale sharks and manta rays, alongside pristine coral reefs. A must-visit for divers seeking a combination of adventure and natural underwater beauty."
101,Seychelles,-4.6574977,55.4540146,"Africa, Indian Ocean","The Seychelles, with their crystal-clear waters and rich marine life, offer a world-class scuba diving experience in the heart of the Indian Ocean.","Dive in the Seychelles to experience some of the best scuba diving in the Indian Ocean. With its crystal-clear waters, abundant marine life, and stunning coral reefs, the Seychelles provide a serene and mesmerizing underwater adventure, perfect for exploring the rich biodiversity of this idyllic destination."
102,Switzerland,46.7985624,8.2319736,Europe,Switzerland offers a unique freshwater scuba diving experience. Dive in its pristine lakes and rivers for a different kind of diving adventure.,"Dive in Switzerland to discover its hidden underwater treasures. Its pristine lakes and rivers provide a unique freshwater diving experience, featuring clear waters and diverse aquatic life. Ideal for divers seeking a tranquil and scenic underwater journey away from the ocean's vastness."
103,Ecuador,-1.3397668,-79.3666965,South America,Ecuador's diverse marine ecosystems make it a top scuba diving destination. Dive in to explore the Galápagos Islands and the rich Pacific Ocean life.,"Dive in Ecuador for a unique encounter with its diverse marine ecosystems, particularly in the Galápagos Islands. Known for its rich Pacific Ocean life and unique species, Ecuador offers a once-in-a-lifetime diving experience, perfect for those seeking to explore one of the world's most extraordinary underwater environments."
104,New Zealand,-41.5000831,172.8344077,Oceania,"New Zealand's waters offer a scuba diving experience like no other. Dive in to discover its rich marine life, unique underwater topography, and clear waters.","Dive in New Zealand to explore its remarkable underwater world. With its rich marine life, unique underwater topography, and clear waters, New Zealand provides an unparalleled diving experience. Ideal for divers seeking adventure and the chance to encounter a wide array of marine species in diverse environments."
105,Hungary,47.1817585,19.5060937,Europe,Hungary's landlocked waters present a unique diving experience. Dive in its lakes and rivers for an unexpected and captivating scuba diving journey.,"Dive in Hungary to experience the charm of its inland waters. Its lakes and rivers offer a unique and unexpected scuba diving experience, featuring hidden underwater wonders and a peaceful atmosphere, ideal for those seeking a tranquil and distinct diving adventure."
106,Russia,64.6863136,97.7453061,"Asia, Cold Waters","Russia's vast and diverse waters offer an intriguing scuba diving experience. Dive in to explore its mysterious lakes, seas, and unique underwater landscapes.","Dive in Russia and discover a world of diverse underwater experiences. From the mysterious depths of its lakes and seas to unique underwater landscapes, Russia provides a range of scuba diving adventures, suitable for those in search of uncharted territories and breathtaking natural beauty."
107,Norway,61.1529386,8.7876653,"Europe, Cold Waters","Norway's cold, clear waters provide a unique scuba diving experience. Dive in to explore stunning fjords, rich marine life, and underwater wonders.","Dive in Norway for an unforgettable scuba diving experience. Its cold, clear waters are home to stunning fjords, rich marine life, and unique underwater landscapes. Ideal for adventurous divers seeking to explore the beauty of the Arctic and the North Atlantic, Norway offers a distinct and mesmerizing underwater journey."
108,Honduras,15.2572432,-86.0755145,"North America, Caribbean Sea","Dive in Honduras for a breathtaking scuba diving experience. Its waters boast vibrant coral reefs and diverse marine life, a top Central American diving destination.","Honduras offers a premier scuba diving experience with its stunning coral reefs and abundant marine life. Dive in to explore the world-renowned Bay Islands, known for their clear waters and vibrant underwater ecosystems, making Honduras a must-visit destination for diving in Central America."
109,Romania,45.9852129,24.6859225,Europe,"Romania's Black Sea coast offers a unique diving experience. Dive in to explore its underwater mysteries and marine life, an emerging European diving destination.","Dive in Romania to discover the unexplored wonders of the Black Sea. With its mysterious underwater landscapes and diverse marine life, Romania presents a unique diving destination in Europe, perfect for those seeking a blend of history and natural underwater beauty."
110,Brazil,-10.3333333,-53.2,South America,Brazil's diverse marine environments make it a spectacular diving destination. Dive in to explore vibrant coral reefs and incredible underwater fauna.,"Dive in Brazil for an unparalleled scuba diving adventure. From the lush coral reefs of Fernando de Noronha to the rich Atlantic waters, Brazil offers a diverse and exciting destination for diving, ideal for encountering a wide range of marine life in stunning underwater settings."
111,Austria,47.59397,14.12456,Europe,Austria's freshwater lakes offer a unique scuba diving experience. Dive in to explore crystal-clear waters and a different kind of underwater beauty.,"Dive in Austria to experience the serene beauty of its freshwater lakes. Known for their crystal-clear waters and unique aquatic life, Austria's lakes provide a tranquil and picturesque diving experience, ideal for those seeking a peaceful and distinct underwater adventure away from the sea."
112,Guatemala,15.5855545,-90.345759,North America,Guatemala's Pacific and Caribbean coasts offer diverse scuba diving experiences. Dive in to explore its rich marine life and unique underwater landscapes.,"Dive in Guatemala and enjoy the diversity of its Pacific and Caribbean coasts. With rich marine life and unique underwater landscapes, Guatemala presents a varied scuba diving experience, perfect for those looking to explore different underwater worlds in one Central American destination."
113,Panama,8.559559,-81.1308434,South America,Panama's waters are a scuba diving paradise. Dive in to encounter vibrant marine life and explore the famous Panama Canal underwater.,"Dive in Panama for a unique and diverse scuba diving experience. Its waters, both in the Caribbean and the Pacific, offer vibrant marine life and the opportunity to explore the underwater side of the famous Panama Canal, making it an intriguing and must-visit destination for divers."
114,Lithuania,55.3500003,23.7499997,Europe,"Lithuania's Baltic Sea coast offers a unique and serene diving experience. Dive in to explore its underwater treasures and marine life, an underrated European diving spot.","Dive in Lithuania to discover the hidden gems of the Baltic Sea. With its serene waters and rich marine life, Lithuania offers a unique and tranquil diving experience, ideal for those seeking a peaceful and less crowded European diving destination."
115,Bulgaria,42.6073975,25.4856617,"Europe, Mediterranean Sea",Bulgaria's Black Sea coast provides an intriguing scuba diving experience. Dive in to explore its diverse marine life and historic underwater sites.,"Dive in Bulgaria for a captivating scuba diving experience in the Black Sea. Known for its diverse marine life and historic underwater sites, Bulgaria offers a blend of natural beauty and historical intrigue, making it an appealing destination for divers exploring the European waters."
116,Croatia,45.3658443,15.6575209,Europe,"Croatia's Adriatic Sea is a scuba diver's dream. Dive in to explore stunning underwater landscapes, rich marine life, and historic wrecks.","Dive in Croatia to experience the crystal-clear waters of the Adriatic Sea. Renowned for its stunning underwater landscapes, rich marine life, and historic wrecks, Croatia is a top Mediterranean diving destination, offering a range of diving experiences from serene to adventurous."
117,Tunisia,33.8439408,9.400138,"Europe, Africa, Atlantic Ocean",Tunisia's Mediterranean coast offers diverse scuba diving opportunities. Dive in to explore vibrant marine ecosystems and historic underwater sites.,"Dive in Tunisia for a unique Mediterranean scuba diving experience. Its coast boasts vibrant marine ecosystems and a wealth of historic underwater sites, providing a fascinating blend of natural beauty and historical exploration, making Tunisia a captivating destination for divers in the Mediterranean."
118,Sudan,14.5844444,29.4917691,Africa,Dive in Sudan for an exceptional Red Sea scuba diving experience. Explore untouched coral reefs and abundant marine life in this unique diving destination.,"Sudan's Red Sea coast offers a pristine scuba diving experience. Dive in to discover untouched coral reefs, vibrant marine life, and historical wrecks. Ideal for divers seeking an off-the-beaten-path destination in the Red Sea with rich underwater biodiversity and serene landscapes."
119,Aruba,12.5013629,-69.9618475,Caribbean Sea,Aruba's clear Caribbean waters make it a perfect destination for diving. Dive in to explore beautiful coral reefs and diverse marine life in this tropical paradise.,"Dive in Aruba to experience the Caribbean's underwater beauty. Known for its crystal-clear waters, beautiful coral reefs, and diverse marine life, Aruba offers an ideal setting for both beginner and experienced divers seeking a serene and vibrant underwater adventure."
120,North Macedonia,41.6171214,21.7168387,"Europe, Mediterranean Sea",North Macedonia's inland waters offer a unique diving experience. Dive in its lakes for an exploration of freshwater ecosystems and historical artifacts.,"Dive in North Macedonia to explore the unique freshwater ecosystems of its lakes. Known for their clear waters and historical artifacts, these lakes provide a peaceful and intriguing diving experience, perfect for those interested in exploring inland water bodies with a touch of history."
121,Myanmar,17.1750495,95.9999652,"Asia, Indian Ocean","Myanmar's Andaman Sea coast is a hidden gem for scuba diving. Dive in to discover diverse marine life, stunning coral reefs, and unspoiled underwater beauty.","Dive in Myanmar for an extraordinary scuba diving experience in the Andaman Sea. Its unspoiled underwater beauty, vibrant coral reefs, and diverse marine life make it an emerging destination for diving, ideal for those seeking a serene and less crowded tropical underwater adventure."
122,Nicaragua,12.6090157,-85.2936911,Caribbean Sea,"Nicaragua's Pacific and Caribbean coasts offer diverse diving experiences. Dive in to explore rich marine life, volcanic underwater landscapes, and clear waters.","Dive in Nicaragua to experience the diversity of its Pacific and Caribbean coasts. With rich marine life, volcanic underwater landscapes, and clear waters, Nicaragua provides a unique and varied scuba diving experience, perfect for divers looking to explore different underwater worlds in Central America."
123,Tonga,-19.9160819,-175.202642,South America,Tonga's clear waters and abundant marine life make it a top Pacific diving destination. Dive in to encounter whales and pristine coral reefs in this island paradise.,"Dive in Tonga for an unforgettable Pacific scuba diving experience. Known for its clear waters, abundant marine life, and opportunities to encounter whales, Tonga offers a pristine and exhilarating diving environment, ideal for those seeking a unique and adventurous underwater journey."
124,Tanzania,-6.5247123,35.7878438,"Africa, Red Sea",Tanzania's Indian Ocean coast offers world-class scuba diving. Dive in to explore the rich marine biodiversity of Zanzibar and the stunning Mafia Island.,"Dive in Tanzania for a spectacular scuba diving experience in the Indian Ocean. With its rich marine biodiversity, particularly in Zanzibar and Mafia Island, Tanzania provides a captivating destination for diving, perfect for exploring vibrant coral reefs and encountering a wide array of marine species."
125,Poland,52.215933,19.134422,Europe,Poland's Baltic Sea coast offers a unique diving experience. Dive in to explore historic wrecks and diverse marine life in these intriguing northern waters.,"Dive in Poland to discover the unique underwater treasures of the Baltic Sea. Known for its historic wrecks and diverse marine life, Poland presents a fascinating diving destination, ideal for those interested in combining underwater exploration with a sense of history in northern Europe."
126,Lebanon,33.8750629,35.843409,"Europe, Africa, Mediterranean Sea","Lebanon's Mediterranean coast is a hidden gem for scuba diving. Dive in to discover its rich marine life, historical wrecks, and beautiful underwater landscapes.","Dive in Lebanon for an exceptional Mediterranean scuba diving experience. Its coast boasts rich marine life, historical wrecks, and beautiful underwater landscapes, making Lebanon a captivating and less-explored destination for diving in the Mediterranean region."
127,Turks and Caicos Islands,21.721746,-71.5527809,"North America, Caribbean Sea, Atlantic Ocean",Turks and Caicos Islands offer world-class scuba diving. Dive in these Caribbean waters to explore stunning coral reefs and a diverse range of marine life.,"Dive in the Turks and Caicos Islands for an unparalleled Caribbean scuba diving experience. Known for their stunning coral reefs and diverse marine life, these islands provide an ideal setting for divers seeking vibrant underwater ecosystems and crystal-clear waters in a serene tropical paradise."
128,Costa Rica,9.5364569,-84.17566257,South America,Costa Rica's Pacific and Caribbean coasts offer a stunning scuba diving experience. Dive in to explore rich marine life and breathtaking underwater landscapes.,"Costa Rica, with its diverse Pacific and Caribbean coasts, provides a scuba diving paradise. Dive in to encounter a wide range of marine life and explore breathtaking underwater landscapes, making it a top destination for divers seeking both adventure and natural beauty."
129,Jersey,49.2214561,-2.1358386,Europe,Jersey's waters offer a unique Channel Islands diving experience. Dive in to explore vibrant marine life and historical wrecks in these intriguing waters.,"Dive in Jersey to discover the unique underwater world of the Channel Islands. Known for vibrant marine life and historical wrecks, Jersey provides a captivating diving experience, perfect for those looking to explore rich underwater history and diverse ecosystems in northern European waters."
130,Antigua and Barbuda,17.2234721,-61.9554608,"North America, Caribbean Sea",Antigua and Barbuda's clear Caribbean waters are perfect for scuba diving. Dive in to enjoy vibrant coral reefs and an abundance of marine life in this tropical paradise.,"Dive in Antigua and Barbuda for an exceptional Caribbean scuba diving experience. These islands boast clear waters, vibrant coral reefs, and abundant marine life, offering an idyllic setting for both beginners and experienced divers seeking a serene underwater adventure in a tropical paradise."
131,Czechia,49.7439047,15.3381061,Europe,Czechia offers a unique inland scuba diving experience. Dive in its freshwater lakes and quarries to explore a different kind of underwater beauty.,"Dive in Czechia to explore its hidden freshwater lakes and quarries. Offering a unique inland scuba diving experience, Czechia's clear waters and diverse underwater landscapes provide a tranquil and picturesque setting for divers seeking a peaceful and distinct adventure away from the sea."
132,Ireland,52.865196,-7.9794599,Europe,"Ireland's Atlantic coast offers a rugged and beautiful diving experience. Dive in to explore rich marine life, historic wrecks, and stunning underwater landscapes.","Dive in Ireland for a unique Atlantic scuba diving adventure. Known for its rugged beauty, rich marine life, and historic wrecks, Ireland's coast provides a captivating and challenging diving experience, perfect for those seeking a blend of natural beauty and historical intrigue in the Atlantic."
133,British Virgin Islands,18.4024395,-64.5661642,"North America, Caribbean Sea",British Virgin Islands' crystal-clear waters make it a top Caribbean diving destination. Dive in to explore stunning coral reefs and abundant marine life.,"Dive in the British Virgin Islands for a world-class Caribbean scuba diving experience. With crystal-clear waters, stunning coral reefs, and abundant marine life, these islands offer an ideal setting for a serene and vibrant underwater adventure, attracting divers from around the world."
134,Belize,16.8259793,-88.7600927,"North America, Caribbean Sea",Belize's Barrier Reef is a scuba diver's dream. Dive in to explore this UNESCO World Heritage site with its rich marine biodiversity and stunning coral formations.,"Dive in Belize for an extraordinary scuba diving experience at the world-famous Barrier Reef, a UNESCO World Heritage site. Known for its rich marine biodiversity and stunning coral formations, Belize offers a unique and captivating destination for diving enthusiasts seeking to explore one of the world's most pristine underwater ecosystems."
135,Namibia,-23.2335499,17.3231107,Africa,"Namibia's Atlantic coast offers a unique and wild diving experience. Dive in to explore its underwater shipwrecks and rich marine life in these cold, nutrient-rich waters.","Dive in Namibia for an unconventional Atlantic scuba diving experience. Its coast, known for underwater shipwrecks and rich marine life, provides a wild and adventurous diving setting, perfect for those seeking to explore the unique and less-traveled underwater landscapes of the cold, nutrient-rich Atlantic."
136,Greece,38.9953683,21.9877132,"Europe, Mediterranean Sea","Greece's Aegean and Ionian Seas offer a mesmerizing scuba diving experience. Dive in to explore ancient wrecks, vibrant marine life, and crystal-clear waters.","Dive in Greece to experience the enchanting underwater world of the Aegean and Ionian Seas. Known for ancient wrecks, vibrant marine life, and crystal-clear waters, Greece provides a spectacular and historical diving destination, ideal for those seeking a blend of Mediterranean beauty and archaeological intrigue."
137,Mexico,23.6585116,-102.0077097,North America,"Mexico's waters are a scuba diving paradise. Dive in to explore the Great Mayan Reef, cenotes, and vibrant marine ecosystems in this diverse and exciting destination.","Dive in Mexico for a diverse and exciting scuba diving experience. From the Great Mayan Reef to the unique cenotes and vibrant marine ecosystems, Mexico offers a wide range of underwater adventures, making it a top destination for divers seeking to explore a variety of stunning and unique underwater environments."
138,Maldives,3.7203503,73.2244152,Indian Ocean,"Dive in the Maldives for an unparalleled scuba diving experience. Explore its atolls, vibrant marine life, and crystal-clear waters in this tropical paradise.","The Maldives offer a scuba diving experience like no other. With its numerous atolls, vibrant marine life, and crystal-clear turquoise waters, it's a dream destination for divers. Dive in to explore its stunning coral reefs and encounter a diverse range of marine species in this serene tropical paradise."
139,Curacao,12.1176488,-68.9309263,Caribbean Sea,Curaçao's unique underwater landscape makes it a top Caribbean diving destination. Dive in to discover vibrant coral reefs and an array of marine life.,"Dive in Curaçao for a captivating Caribbean scuba diving experience. Known for its unique underwater landscape, vibrant coral reefs, and diverse marine life, Curaçao provides an ideal setting for an unforgettable underwater adventure, perfect for exploring the rich biodiversity of the Caribbean Sea."
140,Bermuda,32.2937417,-64.7815286,"North America, Atlantic Ocean","Bermuda's waters offer a distinctive scuba diving experience. Dive in to explore its historic shipwrecks, coral reefs, and diverse marine ecosystem.","Dive in Bermuda to experience the unique blend of history and natural beauty in its waters. Known for its historic shipwrecks, stunning coral reefs, and diverse marine ecosystem, Bermuda provides a fascinating and diverse diving experience, ideal for those seeking to explore both the natural and historical underwater world."