ID,name,longitude,latitude,address,region,country,destination_id
1688,USS Chippewa (Wreck),-85.4822,29.577,Gulf of Mexico,,United States,
1702,"Taea, Tahiti",-149.6069,-17.5366,Polynésie française,Îles du Vent,Polynésie française,
1713,Dotty’s,-156.0497,19.7085,"Kalaoa, HI 96740, USA",Hawaii,United States,
1714,Wakulla Springs,-84.3044,30.2129,"2093 Wakulla Arran Rd, Crawfordville, FL 32327, USA",Florida,United States,
1719,7th Heavens,72.9438,3.5648,"Alifu Dhaalu Atoll, Maldives",North Central Province,Maldives,
1720,Dhangethi Corner,72.9488,3.5742,"Alifu Dhaalu Atoll, Maldives",North Central Province,Maldives,
1721,Dhigurah Beyru,72.9267,3.5255,"Alifu Dhaalu Atoll, Maldives",North Central Province,Maldives,
1722,Dhigurah Thila / Hudu Thila,72.9346,3.5501,"Alifu Dhaalu Atoll, Maldives",North Central Province,Maldives,
1723,Dhidhdoo Corner,72.8692,3.4746,"Alifu Dhaalu Atoll, Maldives",North Central Province,Maldives,
1725,Sun Island Beyru,72.7991,3.4725,"Unnamed Road, Maldives",North Central Province,Maldives,
1726,Fenfushi Beyru,72.7819,3.4831,"Ameenee Magu, Fenfushi, Maldives",North Central Province,Maldives,
1732,Train Hopper Tunnel,-114.7744,36.0452,,NV,United States,
1734,Jardim dos Corais - Alcatrazes,-45.6928,-24.096,Brazil,,Brazil,
1735,Saco do Funil - Alcatrazes,-45.6881,-24.0978,Brazil,,Brazil,
1743,Koon Too many fish,131.2118,-3.9265,Indonesia,Maluku,Indonesia,
1747,Pyramid Poin,-160.0707,21.9068,"Unnamed Road, Kaumakani, HI 96769, USA",Hawaii,United States,
1765,Big Plates,153.1514,-26.6525,"Queensland, Australia",Queensland,Australia,
1782,Elphistone Resort House Reef,34.777,25.2767,,Rotes Meer,Ägypten,
1789,Indian Shores Reef,-82.963,27.8209,Gulf of Mexico,,United States,
1790,Shaabruhr Umm Gamar,33.917,27.3331,Red Sea,,Egypt,
1843,M9,-82.7063,27.1923,Gulf of Mexico,,United States,
1844,Silvertooth Reef,-82.6394,27.2448,Gulf of Mexico,,United States,
1850,"Diversion Lake, Texas",-98.9127,29.5256,"Pvt Rd 2616, Mico, TX 78056, USA",Texas,United States,
1852,Shark Bowl,-64.8894,18.2772,"St Thomas 00802, USVI",St. Thomas,U.S. Virgin Islands,
1858,Kuda Hithi House Reef,73.379,4.4146,"Kaafu Atoll, Maldives",North Central Province,Maldives,
1860,Poodles Point,73.4704,4.1728,"Kaafu Atoll, Maldives",North Central Province,Maldives,
1865,Furana Thila,73.5482,4.2565,"Kaafu Atoll, Maldives",North Central Province,Maldives,
1867,Maagiri Coral Garden,73.5335,4.2603,"Kaafu Atoll, Maldives",North Central Province,Maldives,
1868,Potato Reef,73.5336,4.2593,"Kaafu Atoll, Maldives",North Central Province,Maldives,
1869,Gulhi Dhigu Thila,73.5079,3.9817,"Unnamed Road, Maldives",North Central Province,Maldives,
1872,Fares Manta Point,72.852,5.2474,"Baa Atoll, Maldives",North Province,Maldives,
1874,Maavaru Caves,72.8467,5.1526,"Baa Atoll, Maldives",North Province,Maldives,
1875,Maavaru Thila,72.8614,5.1544,"Baa Atoll, Maldives",North Province,Maldives,
1876,12 Degrees,72.9168,5.0615,"Baa Atoll, Maldives",North Province,Maldives,
1882,Maalhos Ocean Side,73.1107,5.1301,"Baa Atoll, Maldives",North Province,Maldives,
1883,Maalhos Manta Point,73.1133,5.1325,"Baa Atoll, Maldives",North Province,Maldives,
1885,Maalhos House Reef,73.1061,5.1376,"Hiyy Faseyha Magu, Maalhos, Maldives",North Province,Maldives,
1891,Dhonfanu Reef,73.1241,5.1837,"Unnamed Road, Dhonfanu, Maldives",North Province,Maldives,
1892,Hanifaru Bay,73.1443,5.1732,"Baa Atoll, Maldives",North Province,Maldives,
1893,Kihaadhuffaru Thila,73.1426,5.1886,"Baa Atoll, Maldives",North Province,Maldives,
1894,Hirundhoo,73.1568,5.2093,"Baa Atoll, Maldives",North Province,Maldives,
1895,Bathala Kandu,73.0779,5.348,"Baa Atoll, Maldives",North Province,Maldives,
1905,Eagle Reef,-118.5103,33.4607,"Howland Landing, Avalon, CA 90704, USA",California,United States,
1906,Eel Cove,-118.5067,33.4551,"Howland Landing, Avalon, CA 90704, USA",California,United States,
1919,Admiral 1,73.3519,3.8967,"Unnamed Road, Maldives",North Central Province,Maldives,
1934,Le Diadème,-149.5548,-17.5182,Polynésie française,Îles du Vent,Polynésie française,
1941,China Town - Una una,121.6423,-0.2068,Una una,,Indonésie,
1949,No Name Paradise,-156.9086,20.7323,"190 Mauna Lei Dr, Lanai City, HI 96763, USA",Hawaii,United States,
1953,"Diversion Lake Cliffs, Diversion Lake, Texas",-98.9336,29.5275,"335 Pr 2632, Mico, TX 78056, USA",Texas,United States,
1958,valey giri faru,73.3772,3.912,"Kaafu Atoll, Maldives",North Central Province,Maldives,
1959,Vaagali Thila,73.3739,3.9382,"Kaafu Atoll, Maldives",North Central Province,Maldives,
1960,jumako thila,73.3664,3.8995,"Unnamed Road, Maldives",North Central Province,Maldives,
1961,adam  faru,73.3692,3.867,"Kaafu Atoll, Maldives",North Central Province,Maldives,
1962,ihi reef,73.3542,3.8874,"Kaafu Atoll, Maldives",North Central Province,Maldives,
1963,alimas faru,73.3558,3.8821,"Kaafu Atoll, Maldives",North Central Province,Maldives,
1964,Rani Corner,73.3737,3.822,"Kaafu Atoll, Maldives",North Central Province,Maldives,
1965,rani kan,73.3821,3.8106,"Kaafu Atoll, Maldives",North Central Province,Maldives,
1972,En Madi Giri,73.4517,3.8978,"Kaafu Atoll, Maldives",North Central Province,Maldives,
1973,Labor Day Rock,-86.5029,30.3604,"Okaloosa County, FL, USA",Florida,United States,
1988,The Wall / Embudu,73.5287,4.1209,"Kaafu Atoll, Maldives",North Central Province,Maldives,
1989,Turtle Point,73.5244,4.1233,"Kaafu Atoll, Maldives",North Central Province,Maldives,
1990,Huvafen Thila,73.5325,4.0881,"Kaafu Atoll, Maldives",North Central Province,Maldives,
1991,Gulhi Channel,73.5176,3.9873,"Unnamed Road, Gulhi, Maldives",North Central Province,Maldives,
1994,Karens Block,73.5769,4.3114,"Unnamed Road, Himmafushi, Maldives",North Central Province,Maldives,
1995,Himmafushi Faru,73.5773,4.3037,"Unnamed Road, Himmafushi, Maldives",North Central Province,Maldives,
1997,Mae Ilha Caves,-43.0655,-22.9823,,RJ,Brasil,
2000,West Rock (Wreck),73.6763,4.4624,"Kaafu Atoll, Maldives",North Central Province,Maldives,
2005,chelsea lea reef,-80.4516,27.8797,"9450 Florida A1A, Melbourne Beach, FL 32951, USA",Florida,United States,
2007,Lazy Daze,-80.469,27.8725,"700 Long Point Rd, Melbourne Beach, FL 32951, USA",Florida,United States,
2019,Delta Shoal,-81.0829,24.668,"Monroe County, FL, USA",Florida,United States,
2024,The Janet Tugboat (Wreck),-86.385,30.232,Gulf of Mexico,,United States,
2025,Lake Crescent ,-123.8228,48.0535,"225677 Olympic Hwy, Port Angeles, WA 98363, USA",Washington,United States,
2030,Old Shark Point,73.452,4.1758,"Unnamed Road, Maldives",North Central Province,Maldives,
2032,Turtle Point,73.1515,-0.7083,"A4, Addu City, Maldives",South Province,Maldives,
2033,Equator Village,73.1493,-0.6861,"DOCK, Addu City, Maldives",South Province,Maldives,
2034,Gan Inside,73.168,-0.6919,"A4, Addu City, Maldives",South Province,Maldives,
2035,Maradhoo Inside,73.1207,-0.6587,"Link Road, Addu City, Maldives",South Province,Maldives,
2043,Kuda Kandu Corner,73.1289,-0.6116,"Addu City, Maldives",South Province,Maldives,
2044,Kuda Kandu Outside,73.1187,-0.6108,"Addu City, Maldives",South Province,Maldives,
2045,Fihali Fara,73.1364,-0.6197,"Addu City, Maldives",South Province,Maldives,
2046,Mahala,73.1373,-0.6267,"Addu City, Maldives",South Province,Maldives,
2048,Bushy Outside,73.1446,-0.609,"Addu City, Maldives",South Province,Maldives,
2049,Bushy East Channel,73.151,-0.6114,"Addu City, Maldives",South Province,Maldives,
2050,Muda Kan,73.1541,-0.6067,"Addu City, Maldives",South Province,Maldives,
2051,Maakandu Outside,73.1769,-0.5936,"Addu City, Maldives",South Province,Maldives,
2053,Hulhudhoo Outside,73.2297,-0.6211,"Addu City, Maldives",South Province,Maldives,
2055,Lisa&#039;s Giri,73.4913,4.0589,"Kaafu Atoll, Maldives",North Central Province,Maldives,
2056,Kuda Giri Wreck,73.4822,4.0045,"Kaafu Atoll, Maldives",North Central Province,Maldives,
2057,Wari Giri,73.4657,4.0045,"Kaafu Atoll, Maldives",North Central Province,Maldives,
2058,Gulhi Outside,73.5286,3.999,"Kaafu Atoll, Maldives",North Central Province,Maldives,
2059,Lemon Reef,73.4942,3.9767,"Unnamed Road, Maldives",North Central Province,Maldives,
2060,Maafushi Caves,73.4906,3.9582,"Kaafu Atoll, Maldives",North Central Province,Maldives,
2062,Turtle Reef,73.5436,4.0517,"Kaafu Atoll, Maldives",North Central Province,Maldives,
2063,Fuselier Reef,73.5416,4.0698,"Kaafu Atoll, Maldives",North Central Province,Maldives,
2064,Embudu Channel,73.5367,4.086,"Kaafu Atoll, Maldives",North Central Province,Maldives,
2065,Embudu Corner,73.5331,4.1125,"Kaafu Atoll, Maldives",North Central Province,Maldives,
2066,Wadoo Channel,73.4657,4.1279,"Unnamed Road, Maldives",North Central Province,Maldives,
2067,Mystery Caves,73.4721,4.1274,"Kaafu Atoll, Maldives",North Central Province,Maldives,
2068,Rainbow Reef,73.4803,4.1264,"Kaafu Atoll, Maldives",North Central Province,Maldives,
2069,Cathedral,73.5054,4.126,"Kaafu Atoll, Maldives",North Central Province,Maldives,
2071,Sepp&#039;s Place,73.4553,4.1748,"Unnamed Road, Maldives",North Central Province,Maldives,
2074,West End,-86.9851,16.0986,Honduras,,Honduras,
2079,"East Diablo, Lake Amistad, Texas",-100.997,29.5075,"Val Verde County, TX, USA",Texas,United States,
2081,Boduhiti Corner (Beru),73.3575,4.4351,"Kaafu Atoll, Maldives",North Central Province,Maldives,
2082,The Peak,73.3647,4.4432,"Kaafu Atoll, Maldives",North Central Province,Maldives,
2083,Boduhiti Thila,73.3612,4.4507,"Kaafu Atoll, Maldives",North Central Province,Maldives,
2084,Kuda Kandu,73.3633,4.4673,"Kaafu Atoll, Maldives",North Central Province,Maldives,
2085,Madivaru Beyru,73.362,4.4953,"Kaafu Atoll, Maldives",North Central Province,Maldives,
2086,Madigaa,73.3601,4.5049,"Kaafu Atoll, Maldives",North Central Province,Maldives,
2087,Reethi Giri North,73.4258,4.5454,"Kaafu Atoll, Maldives",North Central Province,Maldives,
2088,Reethi Giri South,73.4413,4.5344,"Kaafu Atoll, Maldives",North Central Province,Maldives,
2089,Ziyaara Corner,73.3696,4.5442,"Kaafu Atoll, Maldives",North Central Province,Maldives,
2091,Muraka Faru,73.4013,4.5418,"Kaafu Atoll, Maldives",North Central Province,Maldives,
2092,Handhi Thila,73.3705,4.5529,"Kaafu Atoll, Maldives",North Central Province,Maldives,
2095,Ziyaara Thils,73.3754,4.5623,"Kaafu Atoll, Maldives",North Central Province,Maldives,
2096,Leo&#039;s Reef,73.376,4.5852,"Kaafu Atoll, Maldives",North Central Province,Maldives,
2097,Ayasiggi Outside,73.3811,4.6112,"Kaafu Atoll, Maldives",North Central Province,Maldives,
2098,Coral Bay,73.4199,4.6413,"Kaafu Atoll, Maldives",North Central Province,Maldives,
2099,Finolhu Corner,73.428,4.639,"Kaafu Atoll, Maldives",North Central Province,Maldives,
2100,Finolhu Garden,73.4443,4.6371,"Kaafu Atoll, Maldives",North Central Province,Maldives,
2101,The Wall,73.4245,4.6114,"Kaafu Atoll, Maldives",North Central Province,Maldives,
2106,Fish Rock,-156.877,20.7302,"12 HI-440, Lanai City, HI 96763, USA",Hawaii,United States,
2114,Treasure Island Reef,-82.8234,27.7789,"Pinellas County, FL, USA",Florida,United States,
2116,Goa Goa - Atoll,121.7239,-0.4185,Indonesia,Central Sulawesi,Indonesia,
2120,North Male Madi Thila,73.373,4.4818,"Kaafu Atoll, Maldives",North Central Province,Maldives,
2121,Ziyaara Thila,73.376,4.5601,"Kaafu Atoll, Maldives",North Central Province,Maldives,
2122,Eriyadhoo Outside,73.3755,4.5762,"Kaafu Atoll, Maldives",North Central Province,Maldives,
2123,Himmiya Outside,73.3789,4.6015,"Kaafu Atoll, Maldives",North Central Province,Maldives,
2124,Eriyadhoo Housereef,73.4147,4.588,"Eriyadoo, Maldives",North Central Province,Maldives,
2126,Labyrinth,72.8494,5.5112,"Raa Atoll, Maldives",North Province,Maldives,
2127,Kottefaru Thila,73.0375,5.5059,"Raa Atoll, Maldives",North Province,Maldives,
2128,Maafaru Caves,72.8701,5.447,"Raa Atoll, Maldives",North Province,Maldives,
2129,Kudathulhaadhoo Thila,72.8974,5.4013,"Raa Atoll, Maldives",North Province,Maldives,
2130,Maafaru Thila,72.8948,5.4256,"Raa Atoll, Maldives",North Province,Maldives,
2131,Vandhoo (The) Wall,73.0479,5.5303,"Raa Atoll, Maldives",North Province,Maldives,
2133,Maarikilu Caves,72.9491,5.3276,"Baa Atoll, Maldives",North Province,Maldives,
2135,Carls Wreck,19.5911,39.7492,,,,
2137,Sevens Reef,153.5667,-27.4,"Queensland, Australia",Queensland,Australia,
2138,Black Forest (Candi City),121.6521,-0.1269,Togean Islands,,,
2146,Hammer Time,-156.705,21.1332,"Unnamed Road, Kaunakakai, HI 96748, USA",Hawaii,United States,
2147,Windows,-66.867,17.8975,Puerto Rico,,Puerto Rico,
17339,Face Norte,-43.2049,-23.0378,,,Brasil,
2158,Batu Karang,115.4579,-8.1677,"Unnamed Road, Tianyar Bar., Kubu, Kabupaten Karangasem, Bali 80853, Indonesia",Bali,Indonesia,
2166,Marilyn Reef,-81.2105,24.6809,"Overseas Hwy, Big Pine Key, FL 33043, USA",Florida,United States,
2168,Embudu Finolhu Outside,73.5337,4.1004,"Unnamed Road, Maldives",North Central Province,Maldives,
2169,Stingray City,73.5255,4.0761,"Kaafu Atoll, Maldives",North Central Province,Maldives,
2172,Taj Coral,73.4021,4.4611,"Kaafu Atoll, Maldives",North Central Province,Maldives,
2180,"Guy Fawkes Island, Galapagos",-90.5263,-0.5145,Ecuador,,Ecuador,
2181,Camanche Reservoir,-121.0145,38.2182,"Unnamed Road, Clements, CA 95227, USA",California,United States,
2195,Burraston Ponds ,-111.8646,39.798,,UT,United States,
2197,Split Rock Lighthouse,-91.3679,47.1965,"Gitchi Gami State Trail, Two Harbors, MN 55616, USA",Minnesota,United States,
2198,Morro de Fora,-32.4162,-3.8379,"Unnamed Road, Fernando de Noronha - PE, 53990-000, Brazil",Pernambuco,Brazil,
2200,Finolhu Garden,73.4441,4.6312,"Kaafu Atoll, Maldives",North Central Province,Maldives,
2201,Chip Chip Wreck,99.7021,10.1526,Thailand,,Thailand,
2211,Paradise Pinnacle,-155.9119,19.2298,"Yee Hop Ranch Rd 2, Captain Cook, HI 96704, USA",Hawaii,United States,
2212,Pele’s Playground,-155.9238,19.0612,"Hawaii County, HI, USA",Hawaii,United States,
2213,Manuka Bay,-155.8829,19.0384,"Ocean View, HI 96704, USA",Hawaii,United States,
2214,Catacombs,-155.909,19.0845,"Unnamed Road, Captain Cook, HI 96704, USA",Hawaii,United States,
2215,Au Au Crater,-155.9094,19.1743,"89 Ewa, Captain Cook, HI 96704, USA",Hawaii,United States,
2217,Driftwood,-155.9509,19.4881,"Oio St, Kealakekua, HI 96750, USA",Hawaii,United States,
2243,Miami Seaquarium,-80.1649,25.7343,"4400 Rickenbacker Causeway, Key Biscayne, FL 33149, USA",Florida,United States,
2252,Krocker Ball,-80.7104,24.847,"Monroe County, FL, USA",Florida,United States,
2258,Proteus,-80.1053,25.765,"Miami-Dade County, FL, USA",Florida,United States,
2284,Makua Beach,-158.2317,21.5357,"Farrington Hwy, Waialua, HI 96791, USA",Hawaii,United States,
2287,Perris Reservoir,-117.1872,33.86,"Lot 1, 2 Rd, Perris, CA 92571, USA",California,United States,
2288,Blue Hole,73.1064,5.2345,"Baa Atoll, Maldives",North Province,Maldives,
2290,Peristera SW,23.9544,39.1642,Greece,,Greece,
2291,Skinny Dipper Bay,-98.7387,43.1329,,,,
2297,North Star (Wreck),-82.2652,43.2395,"Lambton Shores, ON, Canada",Ontario,Canada,
2305,Destin Bridge Rubble - East Stack,-86.4768,30.3751,"Okaloosa County, FL, USA",Florida,United States,
2310,Ronnie’s Cove,-101.0774,33.0558,"43 Bonita Vista Dr, Justiceburg, TX 79330, USA",Texas,United States,
17593,Coralarium,73.0095,6.2876,,,,
2318,Sandskredsvej,11.7221,55.8126,"Sandskredsvej 23, 4500 Nykøbing Sjælland, Denmark",,Denmark,
2319,Grabonissi,25.8951,36.8779,Greece,Çanakkale,Greece,
2331,Wilson,-85.5025,29.8738,Gulf of Mexico,,United States,
2333,Doctors Cove,-118.5311,33.4702,"1 Cove Rd, Avalon, CA 90704, USA",California,United States,
2334,Rippers Cove,-118.4322,33.4291,"Empire Landing Rd, Avalon, CA 90704, USA",California,United States,
2337,Beach House,-159.478,21.8802,"4914 Lawai Rd, Koloa, HI 96756, USA",Hawaii,United States,
2341,Mack’s Reef,-86.5634,30.3843,"Unnamed Road, Destin, FL 32541, USA",Florida,United States,
2347,Long Reef,-86.4945,30.3222,Gulf of Mexico,,United States,
2349,Potter’s Reef,-155.8765,20.0895,"Akoni Pule Hwy, Waimea, HI 96743, USA",Hawaii,United States,
2350,Grayton Beach State Park,-86.1554,30.3201,"357 Main Park Rd, Santa Rosa Beach, FL 32459, USA",Florida,United States,
2351,"Cap Lumiere
",-64.6946,46.6548,"3003 NB-505, Richibucto-Village, NB E4W, Canada",New Brunswick,Canada,
2352,West Cape,-64.4629,46.6805,"Lot 7, PE, Canada",Prince Edward Island,Canada,
2374,Hudson Rocks,-82.6996,28.5647,"Hernando County, FL, USA",Florida,United States,
2377,War Barron,-5.404,50.5143,United Kingdom,,United Kingdom,
2386,Suwannee River,-83.0069,30.0201,,FL,United States,
2393,Isla San Esteban,-112.553,28.6751,Mexico,,Mexico,
2398,Democracy Bay,58.7612,23.5123,Oman,Mascate,Oman,
2399,Paul's Point,58.7621,23.5065,Oman,Muscat Governorate,Oman,
2404,Herman’s Hole,-81.0338,24.6664,"Monroe County, FL, USA",Florida,United States,
2411,Hub 2,-80.7296,24.8201,"Monroe County, FL, USA",Florida,United States,
2414,Snow Creek Truck,-81.2723,35.8,"4850 28th St Cir NE, Hickory, NC 28601, USA",North Carolina,United States,
2421,Dave’s Cove,-119.81,34.0519,"Ventura, CA 93001, USA",California,United States,
2424,Pontoon Work Barge,-114.759,36.036,,NV,United States,
2431,Seven Coco ,-87.8172,18.1757,Mexico,,Mexico,
2448,Lakonisi,24.4749,38.8491,,Εύβοια,Ελλάδα,
2456,Artificial Reef,152.9814,-31.418,"New South Wales, Australia",New South Wales,Australia,
2467,Frys Harbor,-119.7538,34.0545,"Ventura, CA 93001, USA",California,United States,
2473,Bridges,-155.8888,20.0089,"Hawaii County, HI, USA",Hawaii,United States,
2479,Cabeço Dois Irmaos,-32.4586,-3.8479,Brazil,,Brazil,
2484,Dania  Beach Pier,-80.1114,26.0584,"300 N Beach Rd, Dania Beach, FL 33004, USA",Florida,United States,
2500,Cherry Lake Inlet,-119.9022,38.0283,"Forest Rte 2N05, Pinecrest, CA 95364, USA",California,United States,
2512,North Jetty Humboldt Bay,-124.2338,40.7672,"Arcata, CA 95521, USA",California,United States,
2528,Sanibel,-82.0886,26.4097,"Lee County, FL, USA",Florida,United States,
2531,Manta Ray Heaven,-156.0331,19.6043,"Hawaii County, HI, USA",Hawaii,United States,
2536,Passe bateau sud,44.9818,-12.9825,,,,
2537,Passe Boueni sud,44.966,-12.9279,,,,
2538,Passe bateau nord,44.9775,-12.9731,,,,
2540,Passe boueni nord - patate barracuda,44.9618,-12.9223,,,,
2541,Lighthouse Ridge ,-80.0586,26.9409,"Palm Beach County, FL, USA",Florida,United States,
2543,Contents Key,-81.5223,24.7904,"Monroe County, FL, USA",Florida,United States,
2551,Malak Disha,33.9007,27.0589,"Yasmina Way, Hurghada, Red Sea Governorate, Egypt",Red Sea Governorate,Egypt,
2553,La Chimenea,-87.8301,18.1308,Mexico,,Mexico,
2564,Dhangethi Beru,72.9593,3.6013,"Unnamed Road, Dhangethi, Maldives",North Central Province,Maldives,
2566,Hurricane  Bay,-120.1608,39.1214,"201 Mankato Pl, Homewood, CA 96141, USA",California,United States,
2574,Blind Pass Reef,-82.1612,26.4395,"Lee County, FL, USA",Florida,United States,
2580,Undersea Highway,-80.299,25.1652,"Monroe County, FL, USA",Florida,United States,
2583,Philo Scoville,-81.6325,45.3121,"Loop Trail, Tobermory, ON N0H 2R0, Canada",Ontario,Canada,
2597,Laje dos Cabos,-32.4214,-3.8367,"Unnamed Road, Fernando de Noronha - PE, 53990-000, Brazil",Pernambuco,Brazil,
2625,M&M's,72.9941,3.1212,"Faafu Atoll, Maldives",Central Province,Maldives,
2637,La Boquilla,-96.4647,15.6808,"Unnamed Road, Oaxaca, Mexico",Oaxaca,Mexico,
2660,Amphitheater,-155.9528,19.5033,"Club Dr, Kealakekua, HI 96750, USA",Hawaii,United States,
2663,Anae island,144.6384,13.3591,,GU,United States,
2666,Family Beach,144.6471,13.4632,Guam,,Guam,
2671,Sams Cut,-81.4831,24.6629,"22464 La Fitte Dr, Cudjoe Key, FL 33042, USA",Florida,United States,
2680,Conasauga River Blue Hole,-84.4694,33.9288,Leafwood Dr SE 2895,GA,United States,
2682,Ledge Line,-81.3705,24.6119,"Monroe County, FL, USA",Florida,United States,
2687,Elephant Seal Cove,-119.5623,33.9882,"Santa Barbara County, CA, USA",California,United States,
2688,Arch Point,-119.6224,33.9717,"Santa Barbara County, CA, USA",California,United States,
2689,Black Cavern,-119.0397,33.4856,"Santa Barbara County, CA, USA",California,United States,
2693,"Canyon Lake, Arizona",-111.4376,33.5396,"AZ-88, Arizona, USA",Arizona,United States,
2695,The Hive,-155.915,19.1391,"Unnamed Road, Captain Cook, HI 96704, USA",Hawaii,United States,
2696,Misener Barge (Wreck),-82.8451,27.5443,Gulf of Mexico,,United States,
2697,Tongue of the Reef,-80.0211,26.4998,"Palm Beach County, FL, USA",Florida,United States,
2698,Pointe du Chêne,-64.5253,46.2433,"46 Pointe-du-Chêne Wharf Rd, Pointe-du-Chêne, NB E4P 5J6, Canada",New Brunswick,Canada,
2700,40 Fathoms Grotto,-82.3087,29.2896,"9487 NW 115th Ave, Ocala, FL 34482, USA",Florida,United States,
2711,Devils Oven Island,-75.9315,44.3294,"45554 Wau Winett, Alexandria Bay, NY 13607, USA",New York,United States,
2742,"Teneha Creek, Sabine Lake, Texas",-93.9409,31.8438,"9566 FM139, Joaquin, TX 75954, USA",Texas,United States,
2743,"Swede Johnson Recreation Area, Texas",-93.9706,31.9184,"FM2572, Joaquin, TX 75954, USA",Texas,United States,
2745,Buckwheat Reef,-80.3902,25.103,"Monroe County, FL, USA",Florida,United States,
2747,Гравийная бухта,35.0479,44.803,Крымский полуостров,,,
2748,Торпедный катер,35.0467,44.8149,Чёрное море,,,
2758,El Dorado (Wreck),-85.9074,30.1863,"Bay County, FL, USA",Florida,United States,
2763,Las Rayas,-8.7746,43.3069,,Galicia,España,
2780,PLM 27 (Wreck),-52.9588,47.6051,"7 Lance Cove Rd, Bell Island, NL A0A 4H0, Canada",Newfoundland and Labrador,Canada,
2781,Lord Strathcona (Wreck),-52.9907,47.5782,"Division No. 1, Subd. R, NL, Canada",Newfoundland and Labrador,Canada,
2787,Sassi Rossi,10.388,42.8521,Italia,,Italia,
2788,Moulton Falls,-122.3949,45.8317,"Bells Mountain Trail, Battle Ground, WA 98604, USA",Washington,United States,
2789,Jolly Roger ,-80.9598,24.6963,"Monroe County, FL, USA",Florida,United States,
2792,White Rock,99.318,6.4985,"Unnamed Road, Tambon Ko Tarutao, Amphoe Mueang Satun, Chang Wat Satun 91000, Thailand",Chang Wat Satun,Thailand,
2803,Alharrah الحرة,37.2609,25.1287,,Tabuk,Saudi Arabia,
2805,Mister Ramli's,120.4348,-5.64,"Unnamed Road, Bira, Bonto Bahari, Bulukumba, Sulawesi Selatan, Indonésie",Sulawesi Selatan,Indonésie,
2808,Mola Mola,120.4742,-5.6793,Mer de Florès,Sulawesi Selatan,,
2809,Eagle Rock,120.4784,-5.6751,Indonésie,Sulawesi du Sud,Indonésie,
2822,Bahia Esmeralda,-111.1016,27.9416,"Av Esmeralda, Sonora, Mexico",Sonora,Mexico,
2840,Shoreline Reef ,-86.4977,30.3499,"Okaloosa County, FL, USA",Florida,United States,
2847,Tire Park Cove,-84.7127,34.1625,"651 Park Marina Rd, Cartersville, GA 30121, USA",Georgia,United States,
2848,Rack ‘em and Stack ‘em,-80.0007,26.7946,"Palm Beach County, FL, USA",Florida,United States,
2851,Beals Point   ,-121.1621,38.7248,"Beals Point, Granite Bay, CA 95746, USA",California,United States,
2853,Taharoa Domain (Kai Iwi Lakes),173.6607,-35.8091,,Northland,New Zealand,
2854,Diablo Point,-119.7587,34.059,"Ventura, CA 93001, USA",California,United States,
2855,Happy Wall,58.7334,23.5298,,Maskat,Oman,
2874,Cronin’s Ledge ,-80.0454,26.468,"Palm Beach County, FL, USA",Florida,United States,
2883,Ka’ena Point,-158.2756,21.5574,"Unnamed Road, Waialua, HI 96791, USA",Hawaii,United States,
2899,Fulangi Kandu,73.1577,0.667,"Gaafu Alifu Atoll, Maldives",Upper South Province,Maldives,
2903,"Pendleton Bridge Boat Channel, Sabine Lake, Texas",-93.7452,31.4662,"LA-6, Many, LA 71449, USA",Louisiana,United States,
2912,25 Mile State Park,-120.2623,47.9931,"21100 S Lakeshore Rd, Chelan, WA 98816, USA",Washington,United States,
2915,Sea Venture,55.2466,-20.968,,Saint-Paul,,
2921,MV Ovalau II wreck dive,178.2026,-17.2582,,,,
2929,Old Collapsed Bridge,-121.041,38.9148,"150 CA-193, Auburn, CA 95603, USA",California,United States,
2930,Eagle’s Nest,157.2272,-8.3727,"New Georgia Group, Solomon Islands",Western Province,Solomon Islands,
2934,Gili Meno Harbour,116.0636,-8.3529,"Gili Meno, Gili Indah, Pemenang, North Lombok Regency, West Nusa Tenggara, Indonesia",West Nusa Tenggara,Indonesia,
2935,Cañones Es Vedranell,1.2067,38.8687,,,,
2939,Hagg Lake,-123.2181,45.4837,SW Tanner Creek Rd 2101,OR,United States,
2944,"Joe’s Best, Beqa Lagoon, Fiji",178.1563,-18.3558,Fiji,,Fiji,
2951,Branchport,-77.1488,42.5881,"76 W Lake Rd, Branchport, NY 14418, USA",New York,United States,
2965,Cayo Levantado,-69.2834,19.163,Dominican Republic,,Dominican Republic,
2968,Flower Garden,-80.0165,26.6971,"Palm Beach County, FL, USA",Florida,United States,
2969,Pecks Lake Reef,-80.1288,27.099,"8599 SE Palm St, Hobe Sound, FL 33455, USA",Florida,United States,
2971,Train Wheels,-117.309,32.6808,"San Diego County, CA, USA",California,United States,
2973,San Juan County Park,-123.16,48.5408,"15 San Juan Park Rd, Friday Harbor, WA 98250, USA",Washington,United States,
2978,Torqua Springs,-118.3657,33.3965,"Whites Landing Road, Avalon, CA 90704, USA",California,United States,
2979,Gili Asahan slope,115.8844,-8.7439,"Unnamed Road, Sekotong Tengah, Kabupaten Lombok Barat, Nusa Tenggara Bar. 83365, Indonesia",Nusa Tenggara Barat,Indonesia,
2990,Pinnacle,177.167,-17.363,Fiji,,Fiji,
2991,Glory  Wreck,177.1794,-17.2059,Fiji,Western Division,Fiji,
2992,Tavuniko Point,177.1687,-17.2118,,,,
3015,Sugarpine Reservoir,-120.7923,39.1335,"Unnamed Road, Foresthill, CA 95631, USA",California,United States,
3019,Wastwater,-3.309,54.4365,"Unnamed Road, Seascale CA20, UK",England,United Kingdom,
3023,Circle of Heroes Memorial,-82.9926,27.9048,Gulf of Mexico,,United States,
3039,Englebright ,-121.2608,39.2396,"12940 Marina Dr, Smartsville, CA 95977, USA",California,United States,
3055,Na Pali Coast,-159.676,22.1677,,HI,United States,
3066,Soug Bahar,34.5603,25.7175,,Rotes Meer,Ägypten,
3076,Black Beauty,-87.8957,17.174,Belize,,Belize,
3094,Half Pipe,-155.8613,19.9572,"Holoholokai Beach Park Rd, Waimea, HI 96743, USA",Hawaii,United States,
3100,Howards Castle,30.8025,-30.2717,Sydafrika,KwaZulu-Natal,Sydafrika,
3139,Egypt Divers Diving School,33.8714,27.0848,"Unnamed Road, Hurghada, Red Sea Governorate, Egypt",Red Sea Governorate,Egypt,
3166,Cap de Cala Figuera,2.5218,39.4564,"Faro de Cala Figuera, 07181, Illes Balears, Spain",Illes Balears,Spain,
3167,Olnes Pond North,-147.7457,65.0793,"Unnamed Road, Fairbanks, AK 99712, USA",Alaska,United States,
3169,Hanifaru Thila,73.13,5.169,"Baa Atoll, Maldives",North Province,Maldives,
3189,Coral Corner,157.3646,-8.3453,"New Georgia Group, Solomon Islands",Western Province,Solomon Islands,
3205,Мерчаловский карьер,36.1515,55.4177,,,,
3210,Spas-Kamensky quarry,37.4671,56.1429,,,,
3211,Рачий карьер,36.9848,56.2718,,,,
3212,Сенеж. Дом рыбака,36.9799,56.2071,,,,
3216,Вертолетная пещера / Helicopter cave,55.9885,54.2361,"Republic of Bashkortostan, Russia, 453488",Republic of Bashkortostan,Russia,
3239,Tanana Lake,-147.739,64.7966,Saddle Ave 1524–1530,AK,United States,
3249,Акулий Плавник,35.0544,44.7996,Чёрное море,,,
18123,Crossroads,177.1664,-17.1933,,,,
3254,James Island Marine Park,-122.7712,48.5125,"Anacortes, WA 98222, USA",Washington,United States,
3261,116 ft Barge St Petersburg,-82.8852,27.7541,,,United States,
3263,Roches Merveilleuses,-61.1692,16.1901,,,,
3266,Roche à Gilles,-61.1275,16.1626,,,,
3267,Kaledo,-61.2395,16.2411,,,,
3268,Cathedrales,-61.0572,16.3309,,,,
3271,West Wall Bluffs,-93.8614,36.4311,,AR,United States,
3272,Maroshi Thila,73.0484,6.1991,"Unnamed Road, Maroshi, Maldives",Upper North Province,Maldives,
3275,Ras Um Halg,34.6737,25.4889,"Qesm Marsa Alam, Red Sea Governorate, Ägypten",Red Sea Governorate,Ägypten,
3277,L’avion,-61.2405,16.2363,,,,
3278,Sharky,-61.1011,16.2621,,,,
3279,Les raies,-61.2368,16.2355,,,,
3280,La cité,-61.2543,16.2392,,,,
3281,Le Lac,-61.2522,16.2085,,,,
3283,Roche Guizmo,-61.2473,16.1268,,,,
3284,Roche Nord,-61.2417,16.1284,,,,
3285,Life Reef,-61.2389,16.1279,,,,
3286,Land of Oz,-158.2458,21.4881,"83 Farrington Hwy, Waianae, HI 96792, USA",Hawaii,United States,
3291,Cala Montenero,9.7389,44.092,"SP32, 19017 Riomaggiore SP, Italy",Liguria,Italy,
3305,Πατρίς ,24.2641,37.655,Greece,,Greece,
3322,"Bear Creek Scout Reservation, Bear Creek, Texas",-99.4262,30.0687,"2178 W, Hunt, TX 78024, USA",Texas,United States,
3326,Allatoona,-84.7169,34.1728,,GA,United States,
3336,El Wezer,34.4902,25.7871,,Red Sea,Egypt,
3339,Hotel Island East,-93.2927,34.594,,AR,United States,
3347,Baie des Anges,-61.244,16.242,,,,
3350,Amber Head,-87.947,17.2999,Belize,,Belize,
3351,Eagle Ray Wall,-87.5942,17.2301,Belize,,Belize,
3352,Painted Wall,-87.6115,17.2192,Belize,,Belize,
3353,Julie’s Jungle,-87.588,17.1911,Belize,,Belize,
3354,Hat Caye Wall,-87.629,17.1396,Belize,,Belize,
3355,Site X,-87.6273,17.1361,Belize,,Belize,
3356,Chain Wall,-87.5434,17.206,Belize,,Belize,
3357,Angelfish Wall,-87.5491,17.2075,Belize,,Belize,
3358,Lighthouse Wall,-87.5314,17.2026,Belize,,Belize,
3379,Yale Park,-122.3154,46.0288,"Yale Lake, cougar Washington",,United States,
3383,Servemar X,-34.7319,-8.1778,Brazil,,Brazil,
3386,"June Lake Beach, June Lake, California",-119.0683,37.7947,"June Lake Beach Rd, June Lake, CA 93529, USA",California,United States,
3399,Selim,34.0953,26.4422,"Safaga - Al Qusair Rd, El Qoseir, Red Sea Governorate, Egypt",Red Sea Governorate,Egypt,
3401,Menpachi,-156.9762,20.7076,"Maui County, HI, USA",Hawaii,United States,
3403,Sheep Farm,104.1016,0.6127,,Riau,Indonesia,
3414,Tobago,-61.2559,10.486,"Talparo Rd, Trinidad and Tobago",Couva-Tabaquite-Talparo Regional Corporation,Trinidad and Tobago,
3416,Shark Fin,-156.9663,20.7336,"Lanai City, HI 96763, USA",Hawaii,United States,
3426,Sunset Bay State Park,-124.3791,43.3341,"10789 Cape Arago Hwy, Coos Bay, OR 97420, USA",Oregon,United States,
4291,Ko Nang Yuan,99.8093,10.1212,,Chumphon,Thailand,
3482,Turtle Caves,73.4605,5.5524,"Lhaviyani Atoll, Maldives",North Province,Maldives,
3484,Long Reef,177.168,-17.1596,Fiji,,Fiji,
3491,Hurawali Kandu,73.4295,5.5221,"Lhaviyani Atoll, Maldives",North Province,Maldives,
3492,Brown Trousers,177.2804,-17.221,Fiji,,Fiji,
3493,Stepping Stones ,177.2912,-17.2145,Fiji,,Fiji,
3494,Pater Noster,73.0374,3.2194,"Hamza Island Hingun, Maldives",Central Province,Maldives,
3495,Little Channel South,73.0357,3.2257,"Hamza Island Hingun, Maldives",Central Province,Maldives,
3496,Fish Pan,73.0226,3.2518,"Faafu Atoll, Maldives",Central Province,Maldives,
3498,Eagle Trail,72.9791,3.3024,"Faafu Atoll, Maldives",Central Province,Maldives,
3499,Dolphins Corner,73.0426,3.1931,"Faafu Atoll, Maldives",Central Province,Maldives,
3500,Barracuda Kandu,73.0314,3.1393,"Faafu Atoll, Maldives",Central Province,Maldives,
3501,Grey zone,73.03,3.1355,"Faafu Atoll, Maldives",Central Province,Maldives,
3502,Biledhdhoo Kandu,73.0058,3.0945,"Faafu Atoll, Maldives",Central Province,Maldives,
3504,Kalawy Hausriff Nord,34.0706,26.5127,,Rotes Meer,Ägypten,
3505,Kalawy Hausriff Süd,34.0719,26.507,,Rotes Meer,Ägypten,
3508,Blue Mesa Reservoir,-107.2545,38.4694,"Dillon Pinnacles Trail, Gunnison, CO 81230, USA",Colorado,United States,
3513,Safari Medu Giri,72.9316,3.9557,,,,
3514,Fushi Faru South,72.9557,3.9417,,,,
3515,Konagau Faru,72.9547,3.9606,,,,
3516,Maaga Faru West,72.9343,3.9965,,,,
3517,Medu Thila,72.9511,4.0408,,,,
3518,2-я гряда,35.0192,44.825,,,,
3519,Faro Mourisca,-8.82,42.3479,Espanha,Galiza,Espanha,
3524,Trampoline,-114.7696,36.0433,,NV,United States,
3532,"Gorgonion Forest, Layang Layang Island Resort",113.8487,7.3848,,,,
3533,"Dumb Rock, Isla Pinzon, Galapagos",-90.6833,-0.5921,Ecuador,,Ecuador,
3537,Addu Manta Point,73.1532,-0.6099,"Addu City, Maldives",South Province,Maldives,
3538,Kottefaru Anemone Thila,73.0307,5.5078,"Raa Atoll, Maldives",North Province,Maldives,
3539,Gemanafushi Blue,73.5778,0.4479,"Unnamed Road, Gemanafushi, Maldives",Upper South Province,Maldives,
3540,Van’gaaru,73.2067,6.0939,,,,
3541,Kottefaru Wall,73.0473,5.512,"Raa Atoll, Maldives",North Province,Maldives,
3543,Rimas Thila,72.7159,3.9096,"Alifu Dhaalu Atoll, Maldives",North Central Province,Maldives,
3544,Loley Thila,73.105,6.0298,"Shaviyani Atoll, Maldives",Upper North Province,Maldives,
3552,Antonio’s Rock,24.1429,37.7156,Greece,,Greece,
3555,Jackpot ,129.7066,-4.3253,Indonesia,,Indonesia,
3556,I-1 Submarine Wreck,159.6717,-9.2525,"Unnamed Road, Solomon Islands",Guadalcanal Province,Solomon Islands,
3570,Ping Pong,129.708,-4.3272,Indonesia,,Indonesia,
3571,Manuk Coconut Corner,130.2969,-5.5407,Indonesia,,Indonesia,
3584,1000 Mermaids,-80.0286,26.7557,"1167 N Ocean Blvd, Palm Beach, FL 33480, USA",Florida,United States,
3587,Bubble Reef,130.3011,-5.5481,Indonesia,,Indonesia,
3590,Shaab Alaya,34.6039,25.6079,"Unnamed Road, El Qoseir, Red Sea Governorate, Ägypten",Red Sea Governorate,Ägypten,
3595,Racha Noi,98.3267,7.5062,"Rawai, Mueang Phuket District, Phuket, Thailand",Phuket,Thailand,
3596,Shaab el Erg,33.8547,27.4084,Egypt,,Egypt,
3606,Kari Beyru Thila,72.9474,4.0827,,,,
3608,Triple Anchor,-87.7653,17.3631,Belize,,Belize,
3609,Zip Line,-87.7801,17.2818,Belize,,Belize,
3610,Grand Bouge,-87.7808,17.3486,Belize,,Belize,
3611,Johnny’s Wrench,-87.7938,17.3984,Belize,,Belize,
3612,Tarpon Cave,-87.5518,17.4133,Belize,,Belize,
3613,Nurse Shark Ridge,-87.576,17.2437,Belize,,Belize,
3618,"Halg Umm Gamar (Umm Gamar, North)",33.9089,27.3563,Egypt,,Egypt,
3621,Magic Corner Serua ,129.9837,-6.2953,Indonesia,,Indonesia,
3623,Lochmara,173.9962,-41.2289,"Marlborough 7282, New Zealand",Marlborough,New Zealand,
3629,Tama Maru (Japanese Minesweeper),159.9642,-8.9207,"Florida Islands, Solomon Islands",Central Province,Solomon Islands,
3634,Magic Reef,116.0507,-8.3434,,,Indonesia,
3648,Starvation Reservoir,-110.4877,40.1774,"8850 46220W, Duchesne, UT 84021, USA",Utah,United States,
3649,Bottle Hollow Reservoir,-109.8814,40.294,"Unnamed Road, Fort Duchesne, UT 84026, USA",Utah,United States,
3653,Al Karim (Ranveli Wreck),72.9483,3.6193,"Unnamed Road, Dhangethi, Maldives",North Central Province,Maldives,
3658,"Rayner's Rock, Dayang",104.5127,2.4788,Malaysia,Johor,Malaysia,
3662,Etowah River!,-84.7713,34.1515,"25 Old River Rd, Cartersville, GA 30120, USA",Georgia,United States,
3679,Nanjalakalau Wall,159.9933,-8.9516,"Florida Islands, Solomon Islands",Central Province,Solomon Islands,
3680,Tanavula Point Drift,160.0663,-9.0406,"Florida Islands, Solomon Islands",Central Province,Solomon Islands,
3683,Nil Desperandum North Tip,129.7799,-6.6064,Indonesia,,Indonesia,
3689,Karang Hatta - Rozengain,130.0738,-4.6447,Indonesia,,Indonesia,
3697,Ed’s Wall,160.034,-8.9924,"Florida Islands, Solomon Islands",Central Province,Solomon Islands,
3699,Baby Cakes Reef,160.0577,-8.9746,"Florida Islands, Solomon Islands",Central Province,Solomon Islands,
3701,Shameem Thila,72.7665,3.7072,"Faafu Atoll, Maldives",,Maldives,
18124,Bullseye,177.2002,-17.1915,,,,
3711,koh Lao Laing,99.4251,7.1189,"Ko Sukon, Palian, Trang, Thailand",Trang,Thailand,
3712,Unicorn Wreck,99.8313,10.1416,Thailand,,Thailand,
3725,Wall Street,72.9803,3.1178,"Faafu Atoll, Maldives",Central Province,Maldives,
3726,Route 66,73.0023,3.0918,"Faafu Atoll, Maldives",Central Province,Maldives,
3727,Kuda Fahlu,72.8582,3.1416,"Faafu Atoll, Maldives",Central Province,Maldives,
3728,Kika,72.991,3.1249,"Faafu Atoll, Maldives",Central Province,Maldives,
3729,Banana Reef,73.015,3.1443,"Faafu Atoll, Maldives",Central Province,Maldives,
3730,Ayer’s Rock,73.0012,3.1557,"Faafu Atoll, Maldives",Central Province,Maldives,
3731,One Way TIcket,73.0394,3.1639,"Faafu Atoll, Maldives",Central Province,Maldives,
3733,The Pillar,72.9969,3.178,"Faafu Atoll, Maldives",Central Province,Maldives,
3734,King’s Corner,73.0127,3.2383,"Faafu Atoll, Maldives",Central Province,Maldives,
3735,Takatuka Land,73.0095,3.2429,"Faafu Atoll, Maldives",Central Province,Maldives,
3736,King’s Faru,73.0163,3.2339,"Faafu Atoll, Maldives",Central Province,Maldives,
3737,Loabi Giri,72.9927,3.2455,"Faafu Atoll, Maldives",Central Province,Maldives,
3738,Minimasgali Kandu,72.8253,3.2417,"Faafu Atoll, Maldives",Central Province,Maldives,
3740,Northern Hailight,72.9147,3.3271,"Faafu Atoll, Maldives",Central Province,Maldives,
3741,String of Pearls,73.0302,3.2201,"Hamza Island Hingun, Maldives",Central Province,Maldives,
3742,Filitheyo East,73.0409,3.2129,,,,
3743,Filitheyo Outside,73.0407,3.2089,"Hamza Island Hingun, Maldives",Central Province,Maldives,
3763,Nusa Roviana Wall,157.3415,-8.3648,"New Georgia Group, Solomon Islands",Western Province,Solomon Islands,
3764,Bilikiki,157.3383,-8.3534,"New Georgia Group, Solomon Islands",Western Province,Solomon Islands,
3765,Munda Bar,157.2111,-8.3484,"New Georgia Group, Solomon Islands",Western Province,Solomon Islands,
3767,Mitsubishi G3M ’Nell’ (Wreck),157.2603,-8.3325,"New Munda - Kokegolo Rd, Munda, Solomon Islands",Western Province,Solomon Islands,
3768,Vought F4U Corsair (Wreck),157.2648,-8.3322,"Main St, Munda, Solomon Islands",Western Province,Solomon Islands,
3769,Aichi D3A ’Val’ (Wreck),157.2767,-8.3401,"Coast Rd, Munda, Solomon Islands",Western Province,Solomon Islands,
3770,The Pinnacle,157.4883,-8.344,"New Georgia Group, Solomon Islands",Western Province,Solomon Islands,
3771,Langarana,157.5153,-8.3748,"New Georgia Group, Solomon Islands",Western Province,Solomon Islands,
3772,Mbelo Mbelo,157.5168,-8.3741,"New Georgia Group, Solomon Islands",Western Province,Solomon Islands,
3773,Tombatuni Point,157.383,-8.3393,"New Georgia Group, Solomon Islands",Western Province,Solomon Islands,
3774,Koviki Corsair (Wreck),157.1156,-8.3354,"New Georgia Group, Solomon Islands",Western Province,Solomon Islands,
3778,Sasavele Dump Site,157.3476,-8.3131,"Western Province, Solomon Islands",Western Province,Solomon Islands,
3794,Northern Arch,174.7321,-35.4483,"Matapouri, New Zealand",Northland,New Zealand,
3807,Koh Talang South,99.3321,6.4874,Thailand,,Thailand,
3808,UNESCO Thila,73.1284,5.1819,"Baa Atoll, Maldives",North Province,Maldives,
3809,Gulhi Lagoon,73.5081,3.9936,"Unnamed Road, Gulhi, Maldives",North Central Province,Maldives,
3810,Huruvali Wall,72.9791,5.388,"Raa Atoll, Maldives",North Province,Maldives,
3812,Aidhoo Kandu,73.1689,5.1862,"Baa Atoll, Maldives",North Province,Maldives,
3821,Dhigufaru Thila,73.0227,5.3652,,,Malediven,
3822,Beacon Rock,34.1282,27.7047,Egypt,,Egypt,
3828,Gangehi Kandu South,72.7372,4.2171,"Unnamed Road, Maldives",North Central Province,Maldives,
3840,Simon's Rock,99.8152,10.0921,Thailand,สุราษฎร์ธานี,Thailand,
3855,Elijah’s Reef,177.2523,-17.7511,Fiji,,Fiji,
3860,Parcel das Ancoras - Laje de Santos,-46.1842,-24.3211,Brazil,,Brazil,
3862,Alcatrazes - Laje do Alagado,-45.7051,-24.0928,Brazil,,Brazil,
3863,Alcatrazes - Matacões,-45.6918,-24.0927,Brazil,,Brazil,
3864,Alcatrazes - Geladeira,-45.6952,-24.0982,Brazil,,Brazil,
3865,Alcatrazes - Tartaruga,-45.6825,-24.0964,Brazil,,Brazil,
3866,Alcatrazes - Tubarão,-45.6867,-24.1043,Brazil,,Brazil,
3878,Stuart Island,-123.2341,48.6795,,WA,United States,
3887,Ilha Rasa de Fora Face Sul,-40.3661,-20.6788,"State of Espírito Santo, Brazil",State of Espírito Santo,Brazil,
3888,Naufrágio Belucia,-40.3621,-20.679,"State of Espírito Santo, Brazil",State of Espírito Santo,Brazil,
3902,Orca Bay,176.0966,-36.9473,"Bay of Plenty, New Zealand",Waikato,New Zealand,
3915,Cetti Bay,144.6495,13.3274,Guam,,Guam,
3919,Palmeros Canyons,-87.8935,18.0336,,Corozal,Belize,
3931,Fish point,74.5668,13.2313,India,Karnataka,India,
3934,Bawden Rock,-5.2319,50.334,United Kingdom,,United Kingdom,
3987,Laje de Santos - Naufrágio Moreia,-46.1813,-24.3177,Brazil,,Brazil,
3988,Laje de Santos - Boca da Baleia,-46.1797,-24.3177,Brazil,,Brazil,
3989,Abu Dabab VI ,34.7983,25.3265,"Marsa Alam, Red Sea Governorate, Ägypten",,Ägypten,
3994,Três ILHAS,-40.375,-20.6116,"State of Espírito Santo, Brazil",State of Espírito Santo,Brazil,
3998,Yong Hua Wreck,99.2797,6.4819,"Unnamed Road, Tambon Ko Tarutao, Amphoe Mueang Satun, Chang Wat Satun 91000, Thailand",Chang Wat Satun,Thailand,
4003,El Fanar,34.0185,26.6088,,Red Sea,Egypt,
4013,Balolo Reef,177.1687,-17.1844,Fiji,,Fiji,
4014,Blue Room,177.137,-17.1784,Fiji,,Fiji,
4015,Glorious Reef,177.1787,-17.2084,Fiji,,Fiji,
4016,Joe’s Farm,177.1971,-17.2227,Fiji,,Fiji,
4020,Hopkins Island,136.0688,-34.9643,"Spencer Gulf, South Australia, Australia",South Australia,Australia,
4033,Ilhabela - Saco do Poço,-45.2485,-23.7616,Brazil,,Brazil,
4034,Ilhabela - Costão do Quebra Coco,-45.2366,-23.7691,Brazil,,Brazil,
4035,Ilha da Serraria,-45.2303,-23.8133,Brazil,,Brazil,
4039,Ilhotas Codó e Figueira,-45.3006,-23.9184,Brazil,,Brazil,
4040,Ilha Sumitica,-45.1554,-23.8262,Brazil,,Brazil,
4041,Parcel da Sumitica,-45.1514,-23.8206,Brazil,,Brazil,
4042,Ilha de Buzios - Saco do Urubu,-45.1531,-23.8115,"Ilhabela - State of São Paulo, 11630-000, Brazil",State of São Paulo,Brazil,
4043,Ilha de Buzios - Saco da Coruja,-45.158,-23.8048,"Ilhabela - State of São Paulo, 11630-000, Brazil",State of São Paulo,Brazil,
4044,Ilha de Buzios - Parcel da Ponta Oeste,-45.1626,-23.803,Brazil,,Brazil,
4045,Ilha de Buzios - Parcel da Pedra Lisa,-45.1463,-23.7913,Brazil,,Brazil,
4046,Ilha de Buzios - Costão das Estátuas,-45.1407,-23.7901,Brazil,,Brazil,
4047,Ilha de Buzios - Parcel da Mãe Joana,-45.1231,-23.8016,Brazil,,Brazil,
4049,Ilha Vitória - Saco do Paiá/Ponta das Arraias,-45.0191,-23.759,"Ilhabela - State of São Paulo, 11630-000, Brazil",State of São Paulo,Brazil,
4050,Ilha Vitória - Saco do Paiá/Escuninha,-45.0174,-23.754,"Ilhabela - State of São Paulo, 11630-000, Brazil",State of São Paulo,Brazil,
4051,Ilha Vitória - Saco do Paiá/Canto da Sereia,-45.0182,-23.7508,"Ilhabela - State of São Paulo, 11630-000, Brazil",State of São Paulo,Brazil,
4052,Ilha Vitória - Saco do Hilário,-45.0228,-23.7428,Brazil,,Brazil,
4053,Ilhote das Cabras - Facel Sul,-45.0311,-23.739,Brazil,,Brazil,
4054,Ilhote das Cabras - Face Norte,-45.0317,-23.7369,Brazil,,Brazil,
4055,Ilha Vitória - Pedra das Tartarugas,-45.022,-23.7347,Brazil,,Brazil,
4056,Ilha Vitória - Canal dos Pescadores,-45.0218,-23.7391,"Ilhabela - State of São Paulo, 11630-000, Brazil",State of São Paulo,Brazil,
4057,Ilha Vitória - Morro Alto,-45.0164,-23.7388,Brazil,,Brazil,
4058,Ilha Vitória - Saco da Professora/Gruta do Tesouro,-45.0147,-23.7452,Brazil,,Brazil,
4065,Manina 3 (Wreck),26.2698,36.9771,"Leros, Greece",Decentralized Administration of the Aegean,Greece,
4066,Barefoot House Reef,73.174,6.7761,,Haa Dhaalu,Maldives,
4069,The Canyon,18.4961,-34.5151,South Africa,Western Cape,South Africa,
4091,La Barge,45.2532,-12.9054,,Mayotte,Mayotte,
4098,R.A.C. Point,123.8431,12.5574,Philippines,,Philippines,
4099,Tuna Alley,123.8609,12.5751,Philippines,,Philippines,
4104,La Barge Profonde (Wreck),45.2575,-12.9064,,,,
4106,Butterfly Bay West,148.9223,-20.0686,"Whitsundays QLD 4802, Australia",Queensland,Australia,
4107,Pinnacle Bay,148.962,-20.0612,"Whitsundays QLD 4802, Australia",Queensland,Australia,
4108,Mackerel Bay,148.9596,-20.0709,"Whitsundays QLD 4802, Australia",Queensland,Australia,
4110,Zero Rock,99.2684,6.5254,Thailand,,Thailand,
4124,Shaab el Abd,33.9432,26.9289,Egypt,Red Sea Governorate,Egypt,
4126,Flokathi Thila,73.1124,6.7382,"Haa Dhaalu Atoll, Maldives",Upper North Province,Maldives,
4128,Jam,121.6681,-0.1644,,Sulawesi Tengah,Indonesien,
4129,Espondrilos,-81.6326,21.5744,Cuba,,Cuba,
4130,The Abyss,121.6426,-0.1197,,Sulawesi Tengah,Indonesien,
4131,Kingstone Wall,121.6567,-0.1328,,Sulawesi Tengah,Indonesien,
4132,Wall-E,121.6477,-0.1247,,Sulawesi Tengah,Indonesien,
4133,Menara  II,121.6559,-0.1303,,Sulawesi Tengah,Indonesien,
4137,Melisa Wreck,-81.6363,21.5739,Cuba,,Cuba,
4142,Pillarsteen,119.5618,-8.6985,"Komodo, Labuan Bajo, Komodo, Kabupaten Manggarai Barat, Nusa Tenggara Tim., Indonesia",,Indonesia,
4143,Lighthouse,119.5854,-8.4346,"Jalan Soekarno Hatta, Labuan Bajo, Komodo, Labuan Bajo, Komodo, Kabupaten Manggarai Barat, Nusa Tenggara Tim., Indonesia",Nusa Tenggara Timur,Indonesia,
4144,Nusa Kode,119.6253,-8.8009,"Jl. Soekarno Hatta, Labuan Bajo, Komodo, Kabupaten Manggarai Barat, Nusa Tenggara Tim., Indonesia",Nusa Tenggara Timur,Indonesia,
4145,Batu Tiga,119.5802,-8.595,"Pelabuhan KP 3, Labuan Bajo, Komodo, West Manggarai Regency, East Nusa Tenggara, Indonesia",East Nusa Tenggara,Indonesia,
4152,Golden Wall,73.0414,6.8526,"Haa Alifu Atoll, Maldives",Upper North Province,Maldives,
4154,Candyland,73.1102,6.7403,"Haa Dhaalu Atoll, Maldives",Upper North Province,Maldives,
4157,Crusoe Thila,73.0831,6.7748,"Haa Dhaalu Atoll, Maldives",Upper North Province,Maldives,
4158,Maafahi West,73.1494,6.8236,"Haa Alifu Atoll, Maldives",Upper North Province,Maldives,
4159,Turtle Hill,73.1644,6.8439,"Unnamed Road, Muraidhoo, Maldives",Upper North Province,Maldives,
4162,Acuario 30,-78.2827,22.5327,,,,
4163,Casasa,-78.2687,22.5063,,Provincia de Ciego de Ávila,Cuba,
4165,Canelones,-78.2193,22.4834,,,,
4168,La Piedra de Los Tiburones ,-78.2045,22.4821,,,,
4170,Flamingo,-78.4391,22.5656,,,,
4176,El Cantil,-78.1882,22.4911,,,,
4178,El Salto,-78.4241,22.5745,,,,
4180,"Sakra Nusa, Togean islands",121.6352,-0.5868,Indonesien,Sulawesi Tengah,Indonesien,
4184,Sharks Hole,72.9703,6.8005,"Haa Alifu Atoll, Maldives",Upper North Province,Maldives,
4189,"San Francisco Maru, Truk Lagoon",151.901,7.3623,,,,
4190,"Shinkoku Maru, Truk Lagoon",151.78,7.3989,,,,
4192,Vakkaru Manta Point,72.935,5.5078,,,,
4194,Baarah Corner,73.2085,6.8054,,Haa Dhaalu,Maldives,
4196,Good Heart,116.0453,-8.347,,,Indonesië,
4197,Ilha de Itacolomis,-48.4455,-25.8793,,,Brasil,
4210,Seven Seas,116.0874,-8.3647,Jalan Gili Air,,Indonesia,
4228,Blow Holes,167.2105,-15.338,Vanuatu,,Vanuatu,
4229,Dive Vanuatu local reef,167.193,-15.3548,"Unnamed Road, Vanuatu",,Vanuatu,
4235,Jammin,116.0407,-8.3606,"Jl. Pantai Gili Trawangan, Gili Indah, Pemenang, Kabupaten Lombok Utara, Nusa Tenggara Bar. 83352, Indonesia",Nusa Tenggara Barat,Indonesia,
4236,Rolling Hills,116.0578,-8.3605,"Gili Meno island, Gili Indah, Pemenang, North Lombok Regency, West Nusa Tenggara 83352, Indonesia",West Nusa Tenggara,Indonesia,
4239,La cheminée ,45.2905,-12.8654,,,,
4249,Nursery Thilla,73.3171,1.8367,"Laamu Atoll, Maldives",South Central Province,Maldives,
4250,Hedha House Reef,73.285,1.8294,"Laamu Atoll, Maldives",South Central Province,Maldives,
4252,Muniyafushi Kandu,73.3216,1.9985,"Laamu Atoll, Maldives",South Central Province,Maldives,
4254,Deep Thila,73.3347,1.8154,"Laamu Atoll, Maldives",South Central Province,Maldives,
4261,Fish Thila,73.3313,1.8083,"Laamu Atoll, Maldives",South Central Province,Maldives,
4262,Boulder Spot,73.343,1.8327,"Laamu Atoll, Maldives",South Central Province,Maldives,
4265,California Reef ,121.9768,-0.2869,Togean / kadidri island,Central Sulawesi,Indonesia,
4266,The Pinnacle,121.6786,-0.1574,Togean Islands ,Central Sulawesi,Indonesia,
4267,Jack Point,121.643,-0.1233,Togean Islands ,Central Sulawesi,Indonesia,
4269,Dominic rock,121.838,-0.3164,Kadadri / Togean Islands ,Central Sulawesi,Indonesia,
4270,labyrinth ,121.8388,-0.3145,Kadidri/Togean Islands ,Central Sulawesi,Indonesia,
4271,Coral Garden,121.8432,-0.3138,Kadadri/Togean Islands ,Central Sulawesi,Indonesia,
4279,Phra Tong Wreck,98.1708,9.1119,Thailand,,Thailand,
4290,Sharm El Luli,35.1168,24.6137,,Rotes Meer,Ägypten,
4294,Emboodhoo Kandu,73.5143,4.0849,,,,
4295,Royal Springs,-83.0748,30.0861,157th Ln 19801–20127,FL,United States,
4296,Koh Haa #4,98.8968,7.4281,Thailand,,Thailand,
4297,Koh Haa Yai #Beach,98.8908,7.4244,Thailand,,Thailand,
4299,Ines  Wreck,56.5826,25.141,,,United Arab Emirates,
4301,L’arche de Bandrelé ,45.2605,-12.8916,Mayotte,,Mayotte,
4305,Deep Boulder Thila,73.3584,1.9296,"Laamu Atoll, Maldives",South Central Province,Maldives,
239,"SS Lusitania, wreck",18.5014,-34.3944,South Africa,,South Africa,
240,Aigamas,17.283,-19.4596,"Otjozondjupa Region, Namibia",Otjozondjupa Region,Namibia,
7590,Taravana Cave,174.7361,-35.4658,,,,
4320,Busa Bora Kampung,125.14,1.7447,Indonesia,,Indonesia,
4322,Passe en S #1,45.2657,-12.8521,,Mayotte,Mayotte,
4323,Passe en S #1B,45.2719,-12.8599,,,,
4325,Passe en S #2,45.2711,-12.8633,,,,
4326,Passe en S #3,45.2707,-12.8646,,Mayotte,Mayotte,
4327,Passe en S #4,45.2704,-12.8655,Mayotte,,Mayotte,
4328,Passe en S #5,45.2714,-12.8665,,,,
4329,Passe en S #5B,45.2725,-12.8674,,,,
4330,Passe en S #6,45.2741,-12.8684,Rue du Jardin des Epices,Mayotte,Mayotte,
4331,Passe en S #7B,45.2817,-12.871,Rue du Jardin des Epices,Mayotte,Mayotte,
4332,Passe en S #7,45.278,-12.8702,,,,
4333,Passe en S #8B,45.2792,-12.8771,Rue du Jardin des Epices,Mayotte,Mayotte,
4334,Passe en S #9,45.2741,-12.8719,Rue du Jardin des Epices,Mayotte,Mayotte,
4335,Passe en S #10,45.2717,-12.87,,,,
4337,Passe en S #8,45.2783,-12.8734,Rue du Jardin des Epices,Mayotte,Mayotte,
4338,Passe en S #12,45.2702,-12.8621,Mayotte,,Mayotte,
4347,Busa Bora Barat,125.1387,1.7453,,,,
4349,The Herschel Wreck (Edith Byrne),118.1636,-35.0035,"Unnamed Road, Nanarup WA 6330, Australia",Western Australia,Australia,
4367,Fenda Jorge Grego,-44.1626,-23.2261,Brazil,,Brazil,
4372,lunbo giri,73.4941,3.976,"Unnamed Road, Maldives",North Central Province,Maldives,
4488,Brown Sugar,120.4521,-5.5424,Indonesia,Sulawesi Selatan,Indonesia,
4381,North Tip,118.8633,4.6003,Malaysia,,Malaysia,
4382,Eastern Plateau,118.8675,4.5976,"Unnamed Road, Sabah, Malaysia",Sabah,Malaysia,
4396,Wigley Reef,146.6873,-18.7618,"Palm Island QLD 4816, Australia",Queensland,Australia,
4433,Waya Wall,177.0888,-17.2924,Fiji,,Fiji,
4436,White Rock,177.2413,-17.3754,Fiji,,Fiji,
4446,The Horseshoe,-81.3024,24.6555,,FL,United States,
4451,Naufrágio Parnaioca,-44.2599,-23.2019,Brazil,,Brazil,
4454,Huraa Etere,73.5941,4.3299,"Kaafu Atoll, Maldives",North Central Province,Maldives,
4460,Ponta Lopes Mendes,-44.1314,-23.185,Brazil,,Brazil,
4464,Sai Daeng Beach,99.8397,10.0655,Sai Daeng Bay,,Thailand,
4484,Castle Rock,144.5986,-38.2978,"70 Ocean Rd, Point Lonsdale VIC 3225, Australia",Victoria,Australia,
4486,Marumasa,120.4613,-5.5729,Indonesia,Sulawesi Selatan,Indonesia,
4492,Isolotto d’Ortano,10.4331,42.7913,Tyrrhenisches Meer,Toscana,,
4493,Athafaru thila ,72.9423,3.8397,"Dhekunu Athiree Magu, Hangnaameedhoo, Maldives",North Central Province,Maldives,
4496,Coral Ridge,73.3304,1.8047,"Laamu Atoll, Maldives",South Central Province,Maldives,
4498,Romeo,130.6096,-2.1893,,,,
4500,10th June Bombora,159.0698,-31.493,Australia,,Australia,
4503,Balsa Espera Sete,-48.1323,-25.7818,Brazil,,Brazil,
4505,Black Moon,103.3288,10.587,,Kampot,Cambodia,
4508,Soamahaa Thila,73.3767,1.8358,"Laamu Atoll, Maldives",South Central Province,Maldives,
4514,Cabo Pearce,-110.9092,18.774,"Unnamed Road, Colima, Mexico",Colima,Mexico,
4530,Ikan Party (My Reef),130.2961,-0.6014,,Západní Papua,Indonésie,
4550,Pom Pom Wreck,118.8617,4.5937,"Unnamed Road, Malaysia",Sabah,Malaysia,
4552,Pandanan Island,118.9137,4.5785,Malaysia,Sabah,Malaysia,
4554,Fisheye,144.7036,13.4725,Guam,,Guam,
4558,Mocca,-61.3361,15.8766,"Marie galante, Guadeloupe",,Guadeloupe,
4561,Manta Wai,130.7247,-0.681,Indonésie,Papouasie occidentale,Indonésie,
4574,Isla Rincón,-71.75,-40.7488,"Los Lagos, Neuquén, Argentina",Neuquén,Argentina,
4576,Nudi Spot,120.4219,-5.608,"Bonto Bahari, Bulukumba Regency, South Sulawesi 92571, Indonesia",South Sulawesi,Indonesia,
4579,Face Sul,-43.202,-23.0388,,,Brasil,
4586,Digufaru Thila,73.0232,5.3657,"Baa Atoll, Maldives",North Province,Maldives,
4588,Binnendijk,-2.3648,50.5487,United Kingdom,,United Kingdom,
4591,Old Wives Beach,144.6464,13.4166,"10 Magellan Ave, Santa Rita, 96915, Guam",,Guam,
4595,Baarah Caves,73.2001,6.8076,,Haa Dhaalu,Maldives,
4611,La Dune de sable blanc,45.2766,-12.8716,,,,
4612,Antikeri Triangle,25.6712,36.8458,Greece,,Greece,
4620,Fokiotripa,25.7401,36.7956,"Unnamed Road, Amorgos 840 08, Greece",,Greece,
4621,Yaara Giri,73.4634,3.9719,"Kaafu Atoll, Maldives",North Central Province,Maldives,
4626,Site a Bara,-61.3514,15.8958,"Route Jaden Bo Kaz, Grand-Bourg, Guadeloupe",Grande-Terre,Guadeloupe,
4647,Rock ’n’ Stripes,73.4969,3.0522,"Meemu Atoll, Maldives",Central Province,Maldives,
4648,Rayvilla (Wreck),73.4111,2.9854,"Meemu Atoll, Maldives",Central Province,Maldives,
4649,Fish pan,73.3917,3.0199,"Meemu Atoll, Maldives",Central Province,Maldives,
4658,Shark Point,73.4712,3.1712,"Meemu Atoll, Maldives",Central Province,Maldives,
4660,Lucky Reef,73.5175,3.1421,"Meemu Atoll, Maldives",Central Province,Maldives,
4667,Valley of the Ray,73.3799,2.7592,"Meemu Atoll, Maldives",Central Province,Maldives,
4668,Kurali Corner,73.3698,2.7713,"Meemu Atoll, Maldives",Central Province,Maldives,
4669,Northern Tube,73.5638,3.1057,"Unnamed Road, Dhiggaru, Maldives",Central Province,Maldives,
4670,Fish and Caves,73.6506,3.104,"Meemu Atoll, Maldives",Central Province,Maldives,
4674,Western Highlight 1310,73.373,3.0949,"Meemu Atoll, Maldives",Central Province,Maldives,
4675,Kingdom of Fish,73.3783,3.0513,"Meemu Atoll, Maldives",Central Province,Maldives,
4676,White Tip Station,73.5798,3.1094,"Unnamed Road, Maduvvari, Maldives",Central Province,Maldives,
4677,Canyons,-69.5804,19.339,Dominican Republic,,Dominican Republic,
4694,Sunnyside,-120.1532,39.1398,"1790 W Lake Blvd, Tahoe City, CA 96145, USA",California,United States,
4698, Гараж,35.0476,44.8007,Крымский полуостров,Рязанская область,,
4712,Alex Van Opstel (Wreck),-2.2101,50.5588,United Kingdom,,United Kingdom,
4713,British Inventor (Wreck),-2.2941,50.6003,United Kingdom,,United Kingdom,
4716,Ethel (Wreck),-2.279,50.4678,United Kingdom,,United Kingdom,
4717,Frogner,-2.5468,50.5428,United Kingdom,,United Kingdom,
4719,UB-74 (Wreck),-2.5448,50.52,United Kingdom,,United Kingdom,
4721,P-555 (Wreck),-2.5091,50.5084,United Kingdom,,United Kingdom,
4737,P-47 Plane Wreck,130.709,-0.705,,,,
4753,Taburudoo,73.5877,4.3137,"Kaafu Atoll, Maldives",North Central Province,Maldives,
4770,Koh Man Nai Jetty,101.6863,12.6137,,,,
4772,Fihalohi Kandu,73.3608,3.8765,"Unnamed Road, Maldives",North Central Province,Maldives,
4774,Laem Yeepun,100.9578,12.508,,Chonburi,Thailand,
4814,Cayo Madrisky,-66.6632,11.9351,"Los Roques, Dependencias Federales, Venezuela",Dependencias Federales,Venezuela,
4825,La Buceadora,-66.695,11.9571,Gran  Roque,,,
4827,Culata de Salina,-66.7186,11.7721,Venezuela,Dependencias Federales,Venezuela,
4834,Vaagali Kandu,73.354,3.9505,"Kaafu Atoll, Maldives",North Central Province,Maldives,
4855,Blue Hole,144.6264,13.4365,,Guam,United States,
4859,"RMS Scotia, wreck",144.6241,13.4547,,Guam,United States,
4860,Western Shoals,144.6547,13.4518,,Guam,United States,
4861,Surprise Reef,144.6516,13.4471,Dero Dr 261,Guam,United States,
4862,Gab Gab 1,144.6436,13.4432,E Marine Corps Dr 153,Guam,United States,
4863,Gab Gab 2,144.6438,13.4456,Dero Dr 336,Guam,United States,
4864,"Tokai Maru, wreck",144.656,13.4591,Papato Ln 200,Guam,United States,
4868,Crevice,144.6297,13.4336,,,,
4869,Seabee Junkyard,144.628,13.4571,,,,
4870,Blue & White,144.6342,13.4645,,Guam,United States,
4871,Kitsugawa Maru (Wreck),144.6503,13.4583,"11, Piti, Guam",,Guam,
4872,Spanish Steps,144.6183,13.4467,,Guam,United States,
4873,Vecki Reef,144.6247,13.4497,,Guam,United States,
4874,Hidden Reef,144.6319,13.451,"Unnamed Road, Santa Rita, Guam",,Guam,
4875,Finger Reef,144.6364,13.4446,,Guam,United States,
4876,Amphitheater,144.6708,13.4648,,Guam,United States,
4884,Val Bomber (Wreck),144.6368,13.4629,,Guam,United States,
4888,The Pinnacle,144.8258,13.5865,,Guam,United States,
4891,Octopus Reef,144.8343,13.6209,,Guam,United States,
4894,Lunar Scape,144.6561,13.4676,,Guam,United States,
4895,Ron’s Reef,144.623,13.4542,,Guam,United States,
4896,The Wall,144.6196,13.4431,,Guam,United States,
4897,Boulder Alley,144.6395,13.4257,,Guam,United States,
4899,Turtle Rock,144.6459,13.4139,"Unnamed Road, Santa Rita, 96915, Guam",,Guam,
4900,Hap’s Reef,144.6537,13.3942,,Guam,United States,
4902,Fish Bowl,144.6415,13.3592,,Guam,United States,
4904,Anae Caverns,144.637,13.3565,,Guam,United States,
4905,Pete’s Reef,144.6377,13.3441,,Guam,United States,
4906, Black Coral Kingdom,144.6336,13.3436,,Guam,United States,
4907,Pete’s West,144.634,13.3428,,Guam,United States,
4908,Nathan’s Dent,144.6405,13.3361,,Guam,United States,
4910,Fouha Bay,144.6547,13.3047,,Guam,United States,
4912,Cocos West,144.646,13.2514,,Guam,United States,
4915,Pati Point,144.9535,13.6018,,Tillaberi,Niger,
4917,Sharks Pit,144.6394,13.4214,,Guam,United States,
4927,Macuco - Enseada Sul,-48.4704,-27.2082,Brazil,,Brazil,
4928,Macuco - Enseada Norte,-48.4684,-27.2052,Brazil,,Brazil,
4930,Parcel de Torres,-49.6342,-29.338,Brazil,,Brazil,
4931,Saco do Farol,-48.3605,-27.2959,"Governador Celso Ramos - State of Santa Catarina, 88190-000, Brazil",State of Santa Catarina,Brazil,
4932,Recifes do Farol,-48.3604,-27.2975,Brazil,,Brazil,
4933,Saco do Vital,-48.3584,-27.2988,Brazil,,Brazil,
4948,Hin Yai,100.9571,12.4274,,,,
4949,Koh San Chalarm,100.9694,12.4667,,,,
4950,Boran Beach,100.9584,12.5246,,Chonburi,Thailand,
4957,Seal Island Falsebay,18.5834,-34.1388,,WC,South Africa,
4996,Scuba Park,-147.8038,64.8439,"456 Ethel Stoneman Blvd, Fairbanks, AK 99709, USA",Alaska,United States,
5009,Black Pearl Cove,-101.0598,33.044,,TX,United States,
5023,"HTMS Petra, wreck",101.7064,12.5056,,,,
5024,Luminao Reef,144.6537,13.4691,"1026 11, Piti, Guam",,Guam,
5118,Kanonvraget,12.8725,55.6549,,,Sverige,
5119,Караул-Оба,34.8973,44.816,,Крым,Россия,
5132,Koh Nok,100.9596,12.5297,,Chonburi,Thailand,
5145,Blacksmiths Western Artificial Reef,151.6705,-33.0805,,,,
5161,Prins Willem V,-87.8455,43.0224,"IL 60102, USA",,United States,
5168,Перевирське,24.7895,51.0132,,Волинська область,Україна,
5176,"Junkers Ju-52, wreck",31.3816,46.1532,,,Украина,
5195,Dérivante aux tortues,-149.3798,-17.7833,Polynésie française,Îles du Vent,Polynésie française,
5196,Flagstaff,151.6645,-33.0871,"1D Lambton Parade, Swansea Heads NSW 2281, Australia",New South Wales,Australia,
5197,Lucy’s Wall,151.6602,-33.0886,"2A Lambton Parade, Swansea Heads NSW 2281, Australia",New South Wales,Australia,
5237,Blue Reef diver Training pool,39.0739,21.7616,Amir Abdul Majeed Road 4756,Makkah,Saudi Arabia,
5259,Hin Khao,99.4999,6.798,,,,
5282,Becfer,-2.0505,48.688,,,France,
5288,Skorpidi,20.7465,38.7022,,Lefkas,Griekenland,
5300,Quantico Pool,-77.4487,38.5315,Bureau Pkwy,VA,United States,
5320,Sirru Fen Fushi Hulanghu Faru - Manta Point,72.9943,6.299,"Shaviyani Atoll, Maldives",Upper North Province,Maldives,
5321,Sirru Faru Hulhangu,72.9886,6.2818,"Shaviyani Atoll, Maldives",Upper North Province,Maldives,
5322,Sirru Faru Dhekunu,73.0118,6.2787,"Shaviyani Atoll, Maldives",Upper North Province,Maldives,
5324,Sirru Faru Irumathi,73.0139,6.2885,"Gaakoshinbi, Maldives",Upper North Province,Maldives,
5325,Sirru Thila,73.0167,6.2515,"Shaviyani Atoll, Maldives",Upper North Province,Maldives,
5326,Sirru Coco Miyaru Thila,73.025,6.2544,"Shaviyani Atoll, Maldives",Upper North Province,Maldives,
5327,Nattey Thila,73.0042,6.2365,"Shaviyani Atoll, Maldives",Upper North Province,Maldives,
5328,Fahi Faru,72.9796,6.3382,"Unnamed Road, Bileffahi, Maldives",Upper North Province,Maldives,
5333,Naainfaru Irumathi,73.0071,6.2011,"Shaviyani Atoll, Maldives",Upper North Province,Maldives,
5334,Naainfaru Uthuru,72.9926,6.2132,"Shaviyani Atoll, Maldives",Upper North Province,Maldives,
5335,Naainfaru Dhekunu,72.9991,6.1908,"Shaviyani Atoll, Maldives",Upper North Province,Maldives,
5339,Hin Moo,100.9747,12.5196,,Chonburi,Thailand,
5375,Shaab Rahma,34.1793,26.3265,,,,
5376,Bet Goha ED,34.1779,26.3295,,Red Sea,Egypt,
5378,Salim ED,34.1134,26.4067,,,,
5379,El Makluf ED,34.0826,26.4646,,Red Sea,Egypt,
5380,Abu Saaf ED,34.0837,26.4611,,Red Sea,Egypt,
5381,Lighthouse ED,34.02,26.609,,Red Sea,Egypt,
5382,Green Hole ED,34.0195,26.6,,Red Sea,Egypt,
5383,"Alisim shipwreck, Stroggyli",27.7754,36.2442,Greece,,Greece,
5413,Aarah Kuda Thila,72.9413,5.4391,"Raa Atoll, Maldives",North Province,Maldives,
5427,Heron’s Wall,157.3946,-8.3124,"New Georgia Group, Solomon Islands",Western Province,Solomon Islands,
5430,Parque Dos Meros,-48.3243,-25.7595,Brazil,,Brazil,
5443,Esrum sø uf/ Dronningens Bøge,12.3635,55.9949,"Hillerød, Danmark",,Danmark,
5444,Esrum sø uf/ Kongens Bøge,12.3823,56.0121,"Gribskov, Danmark",,Danmark,
5445,"Furesøen, iltbøjen",12.4172,55.7997,"Rudersdal, Danmark",,Danmark,
5451,Waiwiri Rock,174.339,-35.1927,"Cape Brett Track, Northland 0184, New Zealand",Northland,New Zealand,
5452,Whangamumu Reef,174.3248,-35.2461,"Northland 0184, New Zealand",Northland,New Zealand,
5453,Pillar Rock,174.3237,-35.2539,"Northland 0184, New Zealand",Northland,New Zealand,
5456,Hommer Reef,174.3407,-35.3166,"576 Whangaruru North Road, Northland 0184, New Zealand",Northland,New Zealand,
5457,Home Point,174.3791,-35.3194,"Northland 0184, New Zealand",Northland,New Zealand,
5459,Danger Rock,174.3955,-35.3445,"Northland 0184, New Zealand",Northland,New Zealand,
5461,Riko Riko cave,174.7342,-35.4818,"Northland 0173, New Zealand",Northland,New Zealand,
5472,Coves d’en Marroquí,4.2954,39.8022,España,Illes Balears,España,
5474,Magic Wall,174.7381,-35.4885,"Northland 0173, New Zealand",Northland,New Zealand,
5475,Eastern Arch,174.7457,-35.4863,"Northland 0173, New Zealand",Northland,New Zealand,
5476,Southern Arch,174.7414,-35.4913,"Northland 0173, New Zealand",Northland,New Zealand,
5501,"San Choi, wreck",102.7153,5.9353,Malaysia,Terengganu,Malaysia,
5518,Jungle,121.6612,-0.1845,Indonesia,,Indonesia,
5520,Hand Deeps,-4.2078,50.3127,United Kingdom,,United Kingdom,
5524,Stingray City,121.6424,-0.2099,,Central Sulawesi,Indonesia,
5525,Atlantis,121.6392,-0.2092,,Central Sulawesi,Indonesia,
5526,Little India,121.6543,-0.128,,Central Sulawesi,Indonesia,
5527,Artemis,121.589,-0.2144,,Central Sulawesi,Indonesia,
5528,Batu Gila - Una Una,121.5999,-0.2207,,Central Sulawesi,Indonesia,
5533,LA CUEVA ES VEDRA-  Gorgonias,1.1882,38.864,,,,
5534,BAJO DE ES VEDRA,1.1898,38.8657,,,,
5539,Maroshi Irumathi,73.0592,6.2159,"Unnamed Road, Maroshi, Maldives",Upper North Province,Maldives,
5540,Medhu Thila,73.0082,6.1792,"Shaviyani Atoll, Maldives",Upper North Province,Maldives,
5569,Vandhoo Thila,73.0455,5.5236,"Raa Atoll, Maldives",North Province,Maldives,
5570,Villingilli Thila,72.9561,5.3753,"Raa Atoll, Maldives",North Province,Maldives,
5572,Lighthouse Channel,72.9948,6.1775,"Shaviyani Atoll, Maldives",Upper North Province,Maldives,
5573,Kudathulhaadhoo Caves,72.897,5.4092,"Raa Atoll, Maldives",North Province,Maldives,
5574,Muskuli Thila,72.8994,5.4128,"Raa Atoll, Maldives",North Province,Maldives,
5576,Haru Gaa Thila,73.1213,6.1603,"Shaviyani Atoll, Maldives",Upper North Province,Maldives,
5582,Kinolhas Kandu,73.0193,5.4487,"Unnamed Road, Kinolhas, Maldives",North Province,Maldives,
5612,Sin Miedo al Exito,-113.5567,29.5531,Mexico,,Mexico,
5628,Fannette Island,-120.1006,38.9538,"South Lake Tahoe, CA 96150, USA",California,United States,
5636,Des Fous,-61.3295,15.2121,"Bois Cotlette Road, Dominica",Saint Mark Parish,Dominica,
5637,La Souce,-61.34,15.2098,"Morne Rouge Estate Access Rd, Dominica",Saint Mark Parish,Dominica,
5638,Нижне-Бурейское водохранилище,130.0906,49.9974,,,,
5652,"Halki wreck at Alimia Island, Rhodes GR",27.7001,36.2559,,,,
5676,Scuba Master training pool,39.0838,21.7621,4696، حي الشراع، جدة 23814 9222، السعودية,مكة المكرمة,السعودية,
5677,Teddy Bears,32.688,-27.4983,,KZN,South Africa,
5681,Vapor de Baixo,-34.7166,-8.1016,,,Brasil,
5699,SS Kyarra,-1.9428,50.5817,,England,United Kingdom,
5711,Dive Flag Rock,-64.8974,18.278,"St Thomas 00802, USVI",St. Thomas,U.S. Virgin Islands,
5714,Fallen Leaf Lake,-120.0656,38.8789,Fallen Leaf Rd 421,CA,United States,
5720,US COAST GUARD BOAT 56022,-77.3253,43.2969,"Wayne County, NY, USA",New York,United States,
5722,Pibe's Reef,-109.4296,23.4364,"Cabo Pulmo, Mexico",,Mexico,
5726,La passe a Colas,-61.5711,16.3567,,,,
5766,Les Gorgones,-149.5367,-17.516,Polynésie française,Îles du Vent,Polynésie française,
5781,Bellatrix,-34.6347,-8.0119,,,,
5783,Sao Jose,-34.649,-8.0424,,,,
5784,Phoenix,-34.6676,-8.0633,,,,
5787,Pirapama,-34.6638,-8.1091,,,,
5795,Melville Cove,174.1837,-41.0292,,Marlborough,New Zealand,
5805,Chata Noronha,-34.6121,-7.9724,,,,
5806,Alvarenga,-34.6763,-7.9588,,,,
5809,Copernico,-34.6573,-7.7053,,,,
5814,Servemar 1,-34.6833,-8.152,,,,
5815,Margueritte,-34.7697,-8.0942,,,,
5817,Rebocador Marte,-34.7735,-8.3705,,,,
5818,Galeao Sao Paulo,-34.7502,-8.3311,,,,
5819,Draga Massangana,-34.8065,-8.3296,,,,
5820,Virgo,-34.6687,-8.0794,,,,
5821,Taurus e Virgo,-34.7005,-8.0791,,,,
5822,Walsa,-34.6847,-8.0315,,,,
5851,Rena (Wreck),176.3962,-37.5603,,,,
5859,Pandoga Point,118.7311,2.1022,Indonesien,,Indonesien,
5881,Ao Yui,100.9489,12.5649,,Chonburi,Thailand,
5884,Uthuru Maafaru North Corner,72.8374,5.7006,"Raa Atoll, Maldives",North Province,Maldives,
5885,Valu Thilla,73.3475,1.8017,"Laamu Atoll, Maldives",South Central Province,Maldives,
5888,Lake Scooba,-81.3959,32.1499,,GA,United States,
5893,Marka Island جزيرة ماركا,41.3289,18.2302,السعودية,منطقة عسير,السعودية,
5896,Thiling Faru,72.8308,5.6293,,,Maldives,
5897,Sand Bank Reef (You & Me Resort),72.8537,5.6633,,,Maldives,
5901,Ghosties,151.634,-33.1774,,,,
5902,Chris’ Wall,151.653,-33.1196,,,,
5903,Desoto Inlet,151.6348,-33.1608,,,,
5919,Costão das Furnas,-45.2538,-23.7501,,,,
5922,Bird Island,151.6024,-33.2288,,,,
5948,Ilha de Ancora,-41.7951,-22.7693,,,,
5949,Ilha Vitoria,-44.9932,-23.7335,,,,
5959,Le sec grand Ilet,-61.5817,15.8336,"Terre-de-Haut, Guadeloupe",Basse-Terre,Guadeloupe,
5966,Hanimaadhoo South,73.1475,6.7247,,,,
5973,Dogtooth Lair,113.8539,7.3693,,,,
5981,Fulidhoo Caves,73.4177,3.6831,"Вааву, Мальдіви",North Central Province,Мальдіви,
5986,Bomas Kandu,73.3984,3.6801,,,,
5987,Le piton aux gorgones,-149.6213,-17.6198,Polynésie française,Îles du Vent,Polynésie française,
5993,Meião da Brasil,-53.7246,-23.3091,,,,
5996,Chapeirao Atlantida,-38.6827,-18.0557,,,,
5997,THE HOLE,153.1556,-26.6483,,,,
5998,Clown Reef,153.155,-26.6478,,,,
5999,Miyaru Giri,72.8489,5.5931,,,,
6000,Reethi Thila,72.8668,5.7356,,,,
6002,Scuba Beach,144.6491,13.4631,,Guam,United States,
6014,727 plane,-88.86,37.2834,"6724 N US 45 Rd, Belknap, IL 62908, USA",Illinois,United States,
6015,Manganese Quarry/Марганец,85.3012,54.5973,,,,
6017,Listvyagi Quarry/Листвяги,86.8968,53.6153,,,,
6019,Koh Ku La / เกาะกุลา,99.2552,10.2511,ประเทศไทย,ชุมพร,ประเทศไทย,
6046,Marwaru Manta Point,72.7808,4.2812,,,,
6049,Queimada Grande - Saco da Lama,-46.6742,-24.4815,Brazil,São Paulo,Brazil,
6054,Post Office Rock,167.7925,-44.5808,,,,
6058,Rock Quarry,-118.4709,33.517,,,United States,
6060,Wharewaka Point,176.0631,-38.7309,,,,
6064,Pinnacles,178.185,-17.2506,Voli Voli Beach Ressort,Fiji,Fiji,
6133,Kandhoo faru,72.9177,5.7287,,,,
6083,Hastings Reef Blue Lagoon,146.0023,-16.5307,"Douglas, QLD, Australia",Queensland,Australia,
6095,Ladiko Wall north,28.2077,36.3194,Greece,,Greece,
6096,Ladiko Wall South,28.2068,36.3188,"Unnamed Road, Rodos 851 00, Greece",,Greece,
6097,Trooper,28.212,36.3228,"Anthony quinn bay Anthony quinn, Kallithea 851 00, Greece",,Greece,
6098,GhostNet,28.213,36.3229,"Anthony quinn bay Anthony quinn, Kallithea 851 00, Greece",,Greece,
6101,Seal Cave,28.2132,36.3213,"Anthony quinn bay Anthony quinn, Kallithea 851 00, Greece",,Greece,
6102,Eros Reef,28.2112,36.324,"Anthony quinn bay Anthony quinn, Kallithea 851 00, Greece",,Greece,
6103,Matapaua Bay,175.8089,-36.7403,,,,
6104,HUMBUG BAY,175.8211,-36.741,,,,
6105,Devils Point,175.8217,-36.7479,,,,
6109,OHINAU ISLAND,175.8788,-36.7264,,,,
6120,La vallée aux Rougets,-149.6262,-17.5969,Polynésie française,Îles du Vent,Polynésie française,
6122,Gaagandu faru,72.8461,5.6571,,,,
6125,Maafaru,72.8608,5.6737,,,,
6126,Sirru Thila,73.1628,6.7616,,,,
6127,Loma thila,72.8715,5.6599,,,,
6128,Koli kuredhdhoo,72.892,5.6415,,,,
6129,Madi gaa,72.8389,5.7004,,,,
6131,Vaadhoo thila,72.9992,5.8366,,,,
6135,Goemmaru,72.8728,5.6353,,,,
6139,Papuan Explorer wreck dive,178.2139,-17.2941,,,,
6142,Redemption,178.0052,-17.3046,,,,
6143,Dream Weaver,177.9663,-17.3101,,,,
6144,Coral Key,177.9768,-17.3003,,,,
6145,Zara’s Garden,177.9871,-17.3479,,,,
6147,Fantastic,177.9929,-17.308,,,,
6149,Blue Wall,178.0336,-17.1841,,,,
6150,Phantasea Dome,178.0302,-17.1848,,,,
6155,Deja Vu,178.249,-17.2486,,,,
6156,HNY 2012,178.2393,-17.2492,,,,
6157,One Bay,178.2143,-17.2786,,,,
6158,Bats Reef,178.223,-17.2762,,,,
6159,Coral Gardens,178.2028,-17.2741,,,,
6160,Mokusiga Bay,178.2156,-17.2912,,,,
6161,Sunset Point Reef,178.2134,-17.2985,,,,
6162,Anytime,178.2539,-17.2543,,,,
6163,Nawawa Bay,178.2015,-17.284,,,,
6164,Corner Point,178.1973,-17.2767,,,,
6173,Rix Garden,178.074,-17.2932,,,,
6174,Root Canal,177.9573,-17.2916,,,,
6175,Golden Crown,178.0846,-17.28,,,,
6176,Labryinth,178.0942,-17.2885,,,,
6177,Marrie’s Magic,178.0879,-17.2954,,,,
6178,Neptune’s Rhapsody,178.0762,-17.2847,,,,
6179,Patriot Reef,178.0837,-17.2881,,,,
6182,Koldor Dive Site,87.5603,51.7312,,,,
6183,Cape Nyanskotch,87.5428,51.7404,,,,
6184,Cape Ayran,87.6654,51.7529,,,,
6185,Yaylyu - Drunk Pine,87.6511,51.7622,,,,
6187,Kabukhta Dive Site,87.5677,51.7616,,,,
6188,Taylor’s Cross,178.3576,-17.3461,,,,
6189,Chile,178.3517,-17.3299,,,,
6190,3 Sisters,178.3701,-17.3253,,,,
6191,Wheat Field,178.3571,-17.3343,,,,
6192,Heartbreak Ridge,178.3753,-17.3394,,,,
6193,ANZAC,178.3676,-17.3528,,,,
6195,Hooligan’s Rock,178.3422,-17.3461,,,,
6196,Nursery,178.3793,-17.3518,,,,
6198,R&amp;B Dream,178.3507,-17.3523,,,,
6199,Underwater World,178.3469,-17.3376,,,,
6200,Pot Luck,178.4569,-17.3224,,,,
6201,Instant Replay,178.4521,-17.2903,,,,
6202,Mellow Yellow,178.4709,-17.2765,,,,
6203,Black Magic Mountain,178.4789,-17.2822,,,,
6204,E6,178.5966,-17.3289,,,,
6206,THE MAORI LADY,175.8376,-36.7301,,,,
6207,Little Ohinau,175.8848,-36.7161,,,,
6211,Punta d'en Serra,1.5436,39.1064,España,Islas Baleares,España,
6213,Hastings Reef - Coral Gardens,145.9924,-16.5286,,,Australia,
6214,Ses Formigues,1.5901,39.1007,España,Islas Baleares,España,
6240,Cuevas de la luz,1.3822,39.0722,,,,
6247,Purple Haze,178.4773,-17.2948,,,,
6251,Garden of Eden,178.4469,-17.2776,,,,
6252,Vatu Express,178.4577,-17.2981,,,,
6253,Easter Kangaroo,178.4328,-17.2926,,,,
6254,Gee Six,178.4988,-17.303,,,,
6256,Golden Gates,178.5068,-17.3196,,,,
6258,Lara Giri,73.4515,3.9048,,,,
6260,Mississippi,178.4685,-17.3087,,,,
6261,May Tag,178.4824,-17.3582,,,,
6264,Lost World,178.4647,-17.3381,,,,
6265,Pure Magic,178.4594,-17.2803,,,,
6266,West Point,175.7594,-36.4385,,,,
6268,Morada,-80.5776,24.8937,Overseas Hwy 79851,FL,United States,
6269,Amazing Maze,178.1714,-17.2545,,,,
6270,Golden Dream,178.1629,-17.2567,,,,
6271,Breath Taker,178.1591,-17.2522,,,,
6272,Dream Maker,178.1503,-17.2579,,,,
6273,Dragon Tales,178.1677,-17.2494,,,,
6275,Arch,178.1956,-17.2483,,,,
6276,Colleen’s Garden,178.1407,-17.2617,,,,
6277,Grottos,178.1924,-17.2381,,,,
6278,Hong Kong,178.1294,-17.2676,,,,
6283,Jet ski,-69.5758,19.333,,,,
6285,Disneyland,178.1863,-17.2401,,,,
6286,Hutch Haven,178.1361,-17.2725,,,,
6289,Margally,178.1459,-17.2468,,,,
6290,Wedding Chapel,178.1773,-17.251,,,,
6291,Ao Wong Duen,100.975,12.5154,,Chonburi,Thailand,
6296,Clearwater Reef,-82.892,28.0114,,,United States,
6300,Gag Beat Pete,-82.8566,27.9977,,FL,United States,
6329,Yolanda Divers center site,34.4434,28.0261,"340 Nabq Bay. El Salam Road،, قسم شرم الشيخ، جنوب سيناء، Египет",جنوب سيناء,Египет,
6337,PEACH GROVE - GMI,175.8059,-36.6406,,,,
6338,MAMONA BAY,175.7925,-36.64,,,,
6340,HOME BAY - GMI,175.7722,-36.6133,,,,
6341,THE BOOK CASE - GMI,175.7488,-36.5951,,,,
6342,SAIL ROCK - GMI,175.7545,-36.5847,,,,
6343,THE CATHEDRAL,175.7744,-36.5821,,,,
6344,PANCAKE ROCKS - MIDDLE ISLAND,175.8613,-36.6391,,,,
6345,RED MERCS,175.935,-36.6235,,,,
6346,DOUBLE ISLAND,175.9035,-36.6242,,,,
6348,KORAPUKI,175.8491,-36.6582,,,,
6350,ROCKY BAY - GMI,175.7862,-36.593,,,,
6351,CORALIE BAY - GMI,175.796,-36.6028,,,,
6352,SOUTH EAST CORNER,175.8357,-36.6295,,,,
6353,GREEN ISLAND,175.849,-36.6436,,,,
6357,Never Fail Rock - GMI,175.79,-36.5758,,,,
6358,Aldermens- Fish Factory,176.0577,-36.9584,,,,
6361,THE TWINS,175.8023,-36.7618,,,,
6366,Kuni Faru,73.1817,6.7585,,,,
6371,JFS Pool,39.0632,21.7527,Amir Abdul Majeed Road 2475,Makkah,Saudi Arabia,
6373,Diving82 - Trainig Center,35.0453,44.8195,,,,
6388,Clan MacVey,-1.7827,50.6652,United Kingdom,England,United Kingdom,
6390,Saxon Reef Magic Wall,145.9837,-16.4618,,,,
6393,Aldermens- HoneyComb,176.0555,-36.9537,,,,
6395,Aldermens- Mooring Bay,176.0777,-36.9604,,,,
6396,Aldermens-Middle Middle,176.0815,-36.956,,,,
6397,Aldermens- Bishops Hat,176.1019,-36.9534,,,,
6398,Black Rocks Lagoon,175.8656,-36.6982,,,,
6403,Las Anclas,1.5432,39.1131,España,Illes Balears,España,
6411,Pecio Isurus,-8.8881,42.3067,,,España,
6417,Lake Glubokoe,82.7651,55.1891,,,,
6418,Krapivinskaya hydroelectric power station,87.0247,55.0186,,,,
6433,Маяк/Разлом,35.0823,44.7931,,,,
6434,Храм Солнца,35.0753,44.795,,,,
6435,Мидийная плантация,35.0425,44.8124,,,,
6443,Le Remorqueur,-62.9877,18.1212,Saint-Martin,Basse-Terre,Saint-Martin,
6445,The Pin,173.4294,-34.8138,,,,
6470,Indian Head Rock,-86.983,34.0382,,AL,United States,
6475,Whangarei Heads Old Women,174.5886,-35.8544,,,,
6481,Anemone Boulders,176.9759,-37.8507,,,,
6482,Butterflies,153.1554,-26.6504,,,,
6484,"Turtle Bommie, Saxon Reef",145.981,-16.4645,,,Australia,
6505,Lefkada Sparti Garden,20.7408,38.7112,,Levkas,Grækenland,
6515,Barren Arch,174.74,-35.4493,,,,
6517,Cleanerfish Bay,174.7327,-35.4544,,,,
6518,Cave Bay,174.7406,-35.4553,,,,
6519,Hideaway Bay,174.7341,-35.4722,,,,
6520,Matts Crack,174.7424,-35.4767,,,,
6521,The Gardens,174.7376,-35.4805,,,,
6522,Oculina Point,174.7329,-35.485,,,,
6559,Kauri Mountain Awarua Rocks,174.5585,-35.7847,,,,
6576,Pops Pier,-87.0511,34.045,,AL,United States,
6592,LE MERIDIEN HOUSEREEF,73.5871,5.2779,,Baa,Maldives,
6598,TEST_1_2,99.8689,10.0312,,,,
6599,ArmDiving,45.063,40.6026,"Lake Sevan, Armenia",Gegharkunik Province,Armenia,
6603,The Triangle,167.8957,-44.6499,,,,
6606,THE STRAITS OF MACKINAC,-87.4809,42.0241,"Cook County, IL, USA",Illinois,United States,
6619,Bridal Veil,167.844,-44.614,,,,
6621,Butterfly Wall,167.8359,-44.6092,,,,
6624,Sinbad Gully,167.899,-44.66,,,,
6625,Walk the Dog Wall,167.8594,-44.6061,,,,
6642,Lake Samish,-122.4133,48.671,N Lake Samish Dr 663,WA,United States,
6646,Harrison Cove,167.9124,-44.6243,,,,
6648,Kottefaru Bodu Thila,73.0368,5.5033,Kottefaru Bodu Thila,Baa,Maldives,
6657,Test Site Genua Peter,9.0913,44.1817,,,,
6661,Nilson Reef,34.7617,25.3189,Ägypten,Red Sea Governorate,Ägypten,
6664,Hidden Lake Boat Launch,-150.2052,60.4679,,,,
6666,Longmere Lake,-150.9082,60.5094,,,,
6668,Rannalhi  Jetty,73.3574,3.9041,,Baa-Atoll,Malediven,
6680,Fish Soup N/W Rock,153.3842,-29.9127,,,,
6683,Glassfish Cove,72.9324,5.7323,"North Province, Maldives",North Province,Maldives,
6690,Passe Sada Nord,44.9587,-12.8994,,,,
6691,Morne Rouge,44.9516,-12.8809,,,,
6699,Block 24,178.1751,-17.3182,,,,
6700,Aow Lok Gum / อ่าวลกกำ,99.2311,10.2192,66CJ+32P ตำบล ด่านสวี อำเภอสวี ชุมพร ประเทศไทย,ชุมพร,ประเทศไทย,
6701,tombant de Papeari,-149.3664,-17.7789,Polynésie française,Îles du Vent,Polynésie française,
6711,Dhigu Faru Kuda Thila,72.781,3.654, ,Alif Dhaalu,Maldives,
6724,Tree Peaks - Saxon Reef,145.9798,-16.466,,,,
6726,Safari Kuda Giri,72.928,3.9502,"Alifu Alifu Atoll, Maldives",North Central Province,Maldives,
6728,Bulaloghi Faru,72.7259,3.7422, ,Alif Dhaalu,Maldives,
6729,Mage Modu Thila,72.7357,3.5503, ,Alif Dhaalu,Maldives,
6753,Queimada Grande - Ferradura,-46.6764,-24.4773,Brazil,State of São Paulo,Brazil,
6759,Nemo Pool,100.6017,13.8033,,,,
6761,Kylie's Reef,-80.6154,24.8977,"352 Brown Dr, Summerland Key, FL 33042, USA",Florida,United States,
6772,Lohi Kandu Thila,73.3618,3.8644,,,,
6775,Vaagali Faru South,73.3525,3.9479,,,,
6783,Gaali Gili West,72.8428,4.2261,"Alifu Alifu Atoll, Maldives",North Central Province,Maldives,
6791,Saco da Piscirica,-44.362,-23.1789,,RJ,Brasil,
6795,HALAAKU THARI THILA,73.5627,5.2746,,,,
6796,THIN SEHLI THILA,73.5608,5.2769,,,,
6797,GAA VEHTUNU THILA,73.5638,5.2748,,,,
6800,Shaab Nakari,34.9844,24.9436,Ägypten,Red Sea Governorate,Ägypten,
6801,TALABO THILA,73.5337,5.3006,,,,
6802,SALLEYDHOO THILA,73.5522,5.3457,,,,
6804,NEYFAI HAEH THILA,73.5587,5.2781,,,,
6806,MADUVVARI HAA,73.537,5.2812,,,,
6807,HUDHU THILA,73.6196,5.3552,,,,
6808,MADUVVARI IRUMATHI KANN,73.4958,5.288,,,,
6809,MADUVVARI DHEKUNU KANN,73.4988,5.2766,,,,
6810,VARIHURAA KANN,73.4891,5.2994,,,,
6811,LHOHI DEKUNU KANN,73.4728,5.3168,,,,
6812,ALIGHAA BEYRU EDGE,73.514,5.242,,,,
6813,ALIGHAA BEYRU FARU,73.535,5.2436,,,,
6814,FAADHOO KANDU,73.6396,5.4292,,,,
6816,MEYYAFUSHI KANDU,73.6163,5.4395,,,,
6817,MEYYAFUSHI BEYRU,73.6087,5.4436,,,,
6818,DHIHFUSHIMAADHOO BEYRU,73.6474,5.4167,,,,
6819,IHI THILA,73.483,5.4314,,,,
6820,NEMO THILA,73.4976,5.4423,,,,
6828,Карьер Тальков Камень,60.7279,56.4928,,,,
6840,Windjammer Wreck,-82.9321,24.6189,,FL,United States,
6849,Manta Ridge,130.5448,-0.5628,Indonésie,West Papua,Indonésie,
6860,Wairterang Wreck,122.4743,-8.6085,"Wairterang, Flores",East Nusa Tenggara,Indonesia,
6861,Pangabatang South,122.4611,-8.4828,"Pulau Pangabatang, Flores",,,
6862,The Crack at Pulau Babi,122.4958,-8.4211,"Pulau Babi, Flores",East Nusa Tenggara,Indonesia,
6870,Secret Reef,102.3172,11.9057,,,,
6871,Lao Lao,130.723,-0.5,Indonésie,Papua Barat,Indonésie,
6872,Parcel da Laje Branca,-44.3462,-23.1375,,RJ,Brasil,
6876,Fish Lake,-111.6994,38.5614,"Sevier County, UT, USA",Utah,United States,
6914,Savage A2 AJ2 Bomber Wreck,120.1315,14.7409,,,,
6915,Kyo Maru Wreck,120.1538,14.7013,,,,
6916,Gaali Gili East,72.837,4.2422,,Baa,Maldives,
6921,Santa Barbara  Island Arch Reef,-119.0888,33.498,,CA,United States,
6926,Yapascua,-67.8927,10.4697,Venezuela,Carabobo,Venezuela,
6930,Rihiveli Wreck,73.3929,3.8206,,,,
6936,WaterWorld Universal Studios,-118.3541,34.1369,Tony Curtis Dr,CA,United States,
6937,Mosh Pit,-80.604,24.8753,,FL,United States,
6944,Brady’s Corner (Shark Fin Cave),174.738,-35.4794,,,New Zealand,
6949,Test 3/10/22,-80.6707,24.8997,,,,
6952,Deep  Dive Dubaï ,55.294,25.1289,,Dubai,United Arab Emirates,
6955,Amingiri Sandbank Reef,73.3773,4.2493,,,,
6956,Anemone Reef,73.3844,4.2565,,,,
6957,Mas Giri,73.3749,4.2682,,,,
6958,Thin Thila,73.3644,4.2688,,,,
6959,Hulangu Kandu,73.351,4.2721,,,,
6960,Moon Valley,73.3904,4.2025,,,,
6961,Goldies&#039; Garden,93.0365,11.8432,,AN,India,
6962,Baros Thila,73.4257,4.2812,,,,
6963,Black Coral,73.4293,4.2797,,,,
6964,Giraavaru Caves,73.4101,4.1847,,,,
6966,Mas Thila,73.3667,4.3879,,,,
6967,Nakatcha Thila,73.3754,4.4107,,,,
6972,Shark Point,73.3477,4.4027,,,,
6973,Rasfari Beyru,73.3518,4.4168,,,,
6975,Kuda Thila,73.3703,4.4464,,,,
6976,Buraco do Gaba,-35.0634,-5.6421,,,,
6990,Batente das Agulhas,-35.0726,-5.5644,,,,
6991,Laje da Serra,-35.0632,-5.6404,,,,
7001,fourchue,-62.9099,17.9561,Saint-Barthélemy,,Saint-Barthélemy,
7002,Coral Garden,73.42,3.6621,"


Vaavu Atoll, Maldives",North Central Province,Maldives,
7003,Rihiveli Bay,73.4164,3.82,,,,
7007,Api’s Legend,177.3832,-16.9131,,,,
7014,Kunaavashi Kandu,73.3592,3.6383,,,,
7017,Le Nahoon,-61.0998,14.5198,Martinique,Le Marin,Martinique,
7027,Genburugau Giri,72.939,3.898,"Alifu Alifu Atoll, Maldives",North Central Province,Maldives,
7035,Landing Bay Pinnacle &amp; Teravana Cave,174.7351,-35.4655,,,New Zealand,
7048,Guanxuma de Búzios ,-45.1395,-23.7964,Brasil,São Paulo,Brasil,
7049,Ranni Thila,72.9557,3.916,,North Central Province,,
7062,The Gutter,150.8988,-34.593,Track to Bass Trig ,New South Wales,Australia,
7066,Caves,35.4873,-23.2245, ,Inhambane Province,Mozambique,
7069,Dejguny tor,21.5751,54.0492,"Droga bez nazwy, 11-520, Polska",Warmińsko-Mazurskie,Polska,
7074,Farukolhu Kandu,73.4435,3.6818,,,,
7077,Kudhi Boli,73.3523,3.6275,,,,
7078,Alibaba Faru,73.5065,3.579,,,,
7080,Capim Açu,-32.4575,-3.8822,,,,
7081,Barro Vermelho,-32.4646,-3.8798,,,,
7082,Portal da Sapata,-32.4693,-3.8773,,,,
7083,Canal da Rata,-32.3896,-3.8193,,,,
7086,Bolike Faru,73.5067,3.6079,,,,
7087,Tinwana Kandu,73.5063,3.5576,,,,
7091,Fushi Kandu,73.6571,3.4663,,,,
7095,Venparu Kandu,73.5092,3.5505,,,,
7099,Bolzaneto,9.5533,44.1753,,,,
7102,Piaynemo (Galaxy),130.2761,-0.5659, ,West Papua,Indonesia,
7106,SS Glanmire wreck,-2.1366,55.9225,,,,
7116,Blue Maomao Arch (Bay of Islands),174.3413,-35.19,,,,
7117,True Love Reef,173.937,-34.967,,,,
7136,Lady Musgrave Aquarium,152.4017,-23.8995,,,,
7137,Turtle Bommie,152.4029,-23.899,,,,
7138,Manta Bommie,152.3859,-23.9113,,,,
7139,The Campgrounds,152.3909,-23.904,,,,
7140,Entrance Bommies,152.4069,-23.8929,,,,
7141,Jeff’s Edge,152.4177,-23.8839,,,,
7142,The Canyons,152.4295,-23.89,,,,
7144,The Caves,152.4114,-23.9178,,,,
7162,Ram Faru Tulu,73.3736,3.89,,,,
7167,Hastings Reef - Fish Bowl,145.9944,-16.5276,,QLD,Australia,
7189,Bio Rocks,116.0422,-8.3589,Jalan Raya Trawangan ,West Nusa Tenggara,Indonesia,
7195,Nilson Reef,34.755,25.3183, ,Roten Meeres,Ägypten,
7201,Calypso Bay,174.7399,-35.4894, ,Northland,New Zealand,
7213,Pante Peunateung,95.2121,5.8849, ,Aceh,Indonesia,
7215,Nursery - Neil,93.0116,11.8464,,,,
7216,Neil Lighthouse,93.0319,11.842,,,,
7219,Mermaid Lintea,123.9104,-5.8356,,,,
7220,Gili Gede Wall,115.9241,-8.727, ,West Nusa Tenggara,Indonesia,
7221,Gili anyaran -Sunken Island,115.9261,-8.7112, ,West Nusa Tenggara,Indonesia,
7226,Galaxy,123.8539,-5.779,,,,
7227,Lorenzos Delight,123.8225,-5.8106,,,,
7228,Pastell,123.822,-5.8146,,,,
7229,Inka´s Palette,123.822,-5.8189,,,,
7230,Brians Choice,123.8241,-5.8212,,,,
7231,Pinki`s Wall,123.8503,-5.7835,,,,
7232,Channel,123.8334,-5.8346,,,,
7257,Swordfish Island,-123.5801,48.3106,,,,
7261,The Toilet Bowl,-123.5821,48.3099,,,,
7262,General Rogers (Wreck),-64.8485,18.3332,,,,
7263,Jan’s Tunnel,174.736,-35.4875, ,Northland,New Zealand,
7264,Finger Lake Strip Pit,-92.3169,39.0868,,,,
7280,Pinakitanga Point,174.7415,-35.4857, ,Northland,New Zealand,
7281,Koh Island,130.6951,-0.5529, ,Papouasie Occidentale,Indonésie,
7288,Jessor Canyon Cave,32.7161,-27.5241, ,KwaZulu-Natal,South Africa,
7290,Dean Richmond wreck,-79.8979,42.2751, ,Pennsylvania,United States,
7294,Crossover,130.6833,-0.549, ,West-Papua,Indonesien,
7297,Face of Oahe Dam,-100.4037,44.4529,State Highway 204 ,South Dakota,United States,
7299,Batu Putih,115.9168,-8.7158, ,West Nusa Tenggara,Indonesia,
7301,Gili Layar Corner,115.91,-8.7305, ,West Nusa Tenggara,Indonesia,
7302,Mike’s Point,130.6735,-0.5155, ,West-Papua,Indonesien,
7304,Fort Loudoun Lake,-84.0525,35.8355,,,,
7316,Batu Rufas,130.2845,-0.5659, ,Papua Barat,Indonesia,
7317,Pasir Timbul,130.6912,-0.55, ,Papua Barat,Indonesia,
7318,New Reef (Dom Te Te),130.6916,-0.5417, ,Papua Barat,Indonesia,
7320,Rockport ,-111.4004,40.7797,UT 302 ,Utah,United States,
7323,Rock Island,-93.4808,36.6683,,,,
7324,Gobblers Cove,-93.3826,36.6335,,,,
7326,Queens Wall,34.8036,25.2225, ,Roten Meeres,Ägypten,
7327,Koh Jorakea,99.3755,10.556, ,,,
7329,Neru Faru - Hilton Maldives Amingiri Housereef,73.3768,4.2539, ,Malé Atoll,Maldives,
7337,King’s Alley,-64.8962,17.6963,Veterans Shore Drive ,United States Virgin Islands,United States,
7341,Shark Reef - Toberua,178.7269,-17.9747,,,,
7342,Magic Reef,178.7529,-17.9507,,,,
7343,Picnic Island,178.7546,-17.8252,,,,
7344,Everett’s Paradise,178.7532,-17.9527,,,,
7354,The Bowl - Spring Creek,-100.5,44.5553,Cow Creek Road ,South Dakota,United States,
7356,Boulder Haven Plum Creek,-100.5293,44.5704, ,South Dakota,United States,
7361,Billy Goats Jump Wreck Site,-100.443,44.455, ,South Dakota,United States,
7363,Spring Creek drop off ledge ,-100.4885,44.5417,196th Street 28273,South Dakota,United States,
7364,Cheney Reservoir,-97.8021,37.7773,,,,
7366,Betty Hedger,-79.6094,42.4479, ,New York,United States,
7367,Fam Wall (Keruwo Channel),130.2967,-0.5905, ,West Papua,Indonesia,
7373,Dheraha Thila,72.8812,5.6827,,,,
7391,FARO ES VEDRA (GORGONIAS),1.1881,38.8624,Cami de Cala d&#039;Hort ,Balearic Islands,Spain,
7392,John J Boland,-79.7298,42.3812,,,,
7394,Indiana,-80.0084,42.2741,,,,
7395,Tradewind,-80.2047,42.4443,,,,
7399,Seromadopo,127.6887,-0.4725,,,,
7401,Tanjung Dehibira,127.7239,-0.4227,,,,
7402,Tanjung Duva Duva,127.7265,-0.4115,,,,
7412,La Lavandera,-67.9289,10.4749, ,Estado Carabobo,Venezuela,
7418,Lalosi,130.4928,-0.5465,Burahman Main Street ,West Papua,Indonesia,
7432,Aquarium,58.176,23.8379, ,Muscat,Oman,
7433,Tito&#039;s Run,58.116,23.8661, ,Muscat,Oman,
7440,Hin ao yai,102.5984,11.6118,,,,
7442,Yenkoranu,130.671,-0.5583, ,West Papua,Indonesia,
7443,War Axe State Recreational Area,-98.7333,40.7245,I 80 ,Nebraska,United States,
7449,Kuda Badhi Caves,73.6907,4.4723, ,Malé Atoll,Maldives,
7452,Chico 1,-62.9879,18.1087, ,Saint-Martin (France),France,
7470,Bahia Minotauro,-68.5256,-38.5581, ,Neuquén,Argentina,
7472,Black Tip Reef,58.0912,23.8594,,,,
7475,горгиппия,37.3632,44.7794, ,Краснодарский край,Россия,
7477,Kabui Reef,130.6973,-0.4471,,,,
7478,Melissa’s Garden,130.3153,-0.59,,,,
7481,Uri,130.6916,-0.4174,,,,
7484,Blue Sky shipwreck,27.7723,36.2456,,,,
7485,Saint Minas Bay,27.7065,36.2654,,,,
7486,Stronggili wall,27.7658,36.2435,,,,
7487,Asdhoo Wreck,73.68,4.4582, ,Malé Atoll,Maldives,
7488,Guno’s Trace,58.096,23.8612,,,,
7519,Police Run,58.0989,23.8617,,,,
7520,Felici garden,130.628,-0.5707, ,West Papua,Indonesia,
7522,sankuba,55.212,-20.9632,,,,
7534,Kassanfaru Beyru,73.6748,4.5028, ,Malé Atoll,Maldives,
7536,Banana Rock Racha Noi,98.3299,7.504,,,,
7540,R-BLACK TIP REEF,58.0851,23.8582,,,,
7541,Titto’s Run,58.0758,23.8567,,,,
7542,Big Wall,58.173,23.8376,,,,
7543,Praia do Ancoradouro,-8.8273,42.3333,A Roza ,Galicia,Spain,
7546,Kassanfaru Corner,73.6814,4.497, ,Malé Atoll,Maldives,
7553,Ilha Queimada Grande - Saco da Lama,-46.6744,-24.4801,,,,
7556,Hohola Thila,72.8081,3.9617,,,,
7567,Shark Point,130.6065,-0.65, ,West Papua,Indonesia,
7569,Caladesi Dive Site,-82.8149,28.0271,,,,
7573,Suangi Slope,129.7107,-4.3254,,,,
7574,Kurkap Pinnacle,131.7961,-4.5405,,,,
7575,Kurkap,131.7877,-4.5428,,,,
7576,Koon Corner,131.2083,-3.9303,,,,
7577,Manuk Ridge,130.3027,-5.5326,,,,
7578,Hope Point,174.7449,-35.4608,,,,
7580,Manuk Black Rock,130.3133,-5.5427,,,,
7582,Scuba Diver’s Paradise Deep Horizon,-97.5327,31.0328,,,,
7583,Scuba Divers Paradise Gnome Boat,-97.5414,31.0137,,,,
7584,Scuba Divers Paradise’s Advanced Site,-97.5315,31.033,,,,
7586,Scuba Republic House Reef,130.7535,-0.4428, ,West Papua,Indonesia,
7597,Lao Lao,130.7268,-0.4998,,,,
7598,Vibrant Colors,130.5134,-2.0556,,,,
7599,Koh Khang Suea / เกาะคางเสือ,99.2165,10.1545,,,,
7600,Koh Mat Wai Noi / เกาะมัดหวายน้อย,99.2475,10.2069,,,,
7601,Koh Thong Kaeo / เกาะทองแก้ว,99.2208,10.1959,,,,
7606,Laem Farang แหลมฝรั่ง,100.9532,12.5521,,,,
7607,SR Access 2,-86.6106,30.3936,Sailfish Drive 707,Florida,United States,
7612,Arno’s Underwater Reef,130.5542,-0.5728, ,West Papua,Indonesia,
7616,Turtle Reef,130.6906,-0.5444,,,,
7617,Friwen Village,130.6972,-0.4719,,,,
7628,Alikoe Giri,73.5128,4.099, ,Malé Atoll,Maldives,
7638,Tres Cocos Canyons,-87.9402,17.9303,,,,
7641,Ti caye la,-61.2354,16.2409,,,,
7646,Mandarin Lagoon,118.6231,2.2513, ,Ost-Kalimantan,Indonesien,
7650,Aquarium,73.3622,3.8953,,,,
7656,Baía dos Porcos (F Noronha),-32.4416,-3.8511,,,,
7671,Joana Reef,33.8451,27.426,,,,
7675,Lighthouse,33.8795,27.4091,,,,
7676,Poseidon Reef,33.8719,27.3906,,,,
7678,Umm Usk,33.869,27.5845,,,,
7680,Elphinstone South,34.8619,25.3063,Red Sea,,Egypt,
7681,"Brayka Bay, House Reef North",34.8033,25.2174,"Unnamed Road, Qesm Marsa Alam, Red Sea Governorate, Egypt",Red Sea Governorate,Egypt,
7683,Marsa Egla,34.8422,25.1726,"Al Qusair - Marsa Allam Rd, Qesm Marsa Alam, Red Sea Governorate, Egypt",Red Sea Governorate,Egypt,
7684,Marsa Shagra House Reef,34.7966,25.2452,"مرسى علم, مرسى شجرة، Egypt",Red Sea Governorate,Egypt,
7687,Sharm Abu Dabab,34.7461,25.3223,"Unnamed Road, Qesm Marsa Alam, Red Sea Governorate, Egypt",Red Sea Governorate,Egypt,
7694,Ras Umm Hesiwa,33.9991,26.8997,,,,
7695,Sha’ab Sheer Soraya,34.0505,26.6421,,,,
7696,"Salem Express, wreck",34.0611,26.6395,,,,
7697,Shaab Hamdallah,34.0688,26.6305,,,,
7699,Sharm el Naga Housereef South,33.9652,26.8971,Ägypten,,Ägypten,
7701,Um Hal Hal (Shaab Quais),34.1111,26.7008,,,,
7721,St. Leoner See,8.5867,49.2841,"Unnamed Road, 68789 St. Leon-Rot, Germany",Baden-Württemberg,Germany,
7753,Coral Garden / Gassous Bay,34.0314,26.573,"Safaga El Quseir Rd. Hurghada & Safaga, Egypt",Red Sea Governorate,Egypt,
7756,Langley Tire Reef,-122.4395,47.9983,"5829 Pioneer Park Pl, Langley, WA 98260, USA",Washington,United States,
7757,Семиозерье ProDiving Base,29.2953,60.2989,"41К-83, 135",Ленинградская область,Россия,
7764,El Indio,-64.4124,10.3503,Venezuela,,Venezuela,
7765,Chesapeake Light Tower,-75.76,36.783,"300 25th St, Virginia Beach, VA 23451, USA",Virginia,United States,
7771,Marsa Shouna,34.6824,25.4681,Marsa Alam,,,
7772,Marsa Gabal el Rosas (Ducks center),34.8092,25.2059,"Al Qusair - Marsa Allam Rd, Qesm Marsa Alam, Red Sea Governorate, Egypt",Red Sea Governorate,Egypt,
7779,Fort Casey Underwater Park,-122.6476,48.152,"13977 WA-20, Coupeville, WA 98239, USA",Washington,United States,
7782,Lake Keowee,-82.8617,34.8813,,,,
7787,Conrad Lagoon,72.7238,3.6153,,,,
7788,Rangali Outside,72.712,3.6116,,,,
7789,The Blue Grotto,-82.4865,29.3873,"3852 NE 172 Ct, Williston, FL 32696, USA",Florida,United States,
7791,Ginnie Springs,-82.7,29.836,"NE 60th Ave, High Springs, FL 32643, USA",Florida,United States,
7793,Kandooma Thila,73.4799,3.9067,,Kaafu,Maldives,
7796,Whitestar Quarry,-83.3155,41.3716,"895 S Main St, Gibsonburg, OH 43431, USA",Ohio,United States,
7797,Bicton Baths - Swan River,115.7774,-32.0281,"80 Blackwall Reach Parade, Bicton WA 6157, Australia",Western Australia,Australia,
7798,Primera Usina (La Cascada),-64.2997,-32.185,"Lago Piedras Moras, Córdoba, Argentina",Córdoba,Argentina,
7815,Little Channel North,73.0351,3.2265,"Hamza Island Hingun, Maldives",Central Province,Maldives,
7817,El Chileno Rocks,-109.8036,22.9467,"Tourist Corridor, B.C.S., Mexico",Baja California Sur,Mexico,
7827,El Fanous West,33.8498,27.5394,,,,
7828,Des Moines,-122.3415,47.389,"23951 6th Ave S, Des Moines, WA 98198, USA",Washington,United States,
7829,Suck Em Up,-156.0899,19.7459,"Hawaii County, HI, USA",Hawaii,United States,
7842,Little Flower,-118.4902,32.9399,"Los Angeles County, CA, USA",California,United States,
7843,Fish Hook,-118.5634,32.9424,"Los Angeles County, CA, USA",California,United States,
7845,Las Cuevas,-67.0121,18.554,Puerto Rico,,Puerto Rico,
7846,Windy Point Park,-97.9022,30.4143,"14503 Ridgetop Terrace, Austin, TX 78732, USA",Texas,United States,
7851,Indian Creek Park,-80.3821,27.0288,"Unnamed Road, Indiantown, FL 34956, USA",Florida,United States,
7858,Walchensee,11.3494,47.5981,"82432 Kochel am See, Germany",Bayern,Germany,
7862,Loch Low-Minn,-84.5096,35.4809,"150 Co Rd 420, Athens, TN 37303, USA",Tennessee,United States,
7879,Rous Head,115.7315,-32.0515,"4 Rous Head Rd, North Fremantle WA 6159, Australia",Western Australia,Australia,
7886,"Isla Champion, Galapagos",-90.3851,-1.2394,Ecuador,,Ecuador,
7887,"Enderby Island, Galapagos",-90.361,-1.2334,Ecuador,,Ecuador,
7894,Ras Bob,34.4098,27.9621,"Unnamed Road, Qesm Sharm Ash Sheikh, South Sinai Governorate, Egypt",South Sinai Governorate,Egypt,
7901,The Pines,153.3647,-27.0978,,,,
7902,Ross Twp Park,-85.5535,42.4305,"140 M-89, Plainwell, MI 49080, USA",Michigan,United States,
7903,CAYO NORTE,-68.2009,10.7786,,,,
7904,CAYO SUR,-68.2441,10.7292,,,,
7905,Lost & Found,-81.5442,24.6669,"Rosalind Rd, Summerland Key, FL 33042, USA",Florida,United States,
7925,CAYO MEDIO,-68.2364,10.7398,,,,
7942,Deep Place,39.3239,-2.4801,"Tana River County, Kenya",Tana River County,Kenya,
7960,Steinbruchsee I,14.1648,51.4389,"Unnamed Road, 02977 Hoyerswerda, Germany",Sachsen,Germany,
7962,Sante Fe River,-82.6749,29.8339,"460 S W Riverland Ct, Fort White, FL 32038, USA",Florida,United States,
7970,Jezioro Jasne,15.0561,52.2955,"66-235 Drzewce, Poland",Lubusz Voivodeship,Poland,
7991,MiG-17 (Wreck),11.4611,53.7214,"19069 Alt Meteln, Germany",Mecklenburg-Vorpommern,Germany,
7995,Zingara Wreck,-70.497,19.7855,"Rumbo a Arenas, Sosúa 57000, Dominican Republic",Puerto Plata,Dominican Republic,
8015,Mildred's Rock,121.8418,-0.3616,Indonesia,,Indonesia,
8017,Mini Canyon,121.8378,-0.3214,Indonesia,,Indonesia,
8018,Apollo,121.608,-0.218,Indonesia,,Indonesia,
8019,Pinnacle 2,121.664,-0.1432,Indonesia,,Indonesia,
8021,El Shugarath,34.4391,28.3567,,,,
8032,Hikkaduwa Gala,80.0556,6.1085,"412-376 Galle Rd, Hikkaduwa, Sri Lanka",Southern Province,Sri Lanka,
8037,Black Coarl Point,79.9886,6.182,,,,
8059,Navy Barges,-64.918,18.31,"St Thomas 00802, USVI",St. Thomas,U.S. Virgin Islands,
8062,Tarkhankut,32.7402,45.3223,Украина,,Украина,
8064,Big Siyoul Island,33.8826,27.5576,Egypt,,Egypt,
8081,"Charles S. Price, Wreck",-81.7239,44.4111,"Bruce County, ON, Canada",Ontario,Canada,
8085,Niagara II,-81.5996,45.262,"Bruce Trail, Tobermory, ON N0H 2R0, Canada",Ontario,Canada,
8086,Caroline Rose (Wreck),-81.2006,45.0234,,,,
8092,Shaab Samadai / Dolphin House,34.9983,24.9937,,,,
8110,Elphinstone Reef,34.8604,25.3096,Red Sea,,Egypt,
8111,Bahamas,-69.6954,18.4447,"Autopista Las Americas, Santo Domingo, Dominican Republic",Santo Domingo,Dominican Republic,
8112,Spoonbill bluff,-93.3318,36.5794,"252 Pine St, Blue Eye, MO 65611, USA",Missouri,United States,
8120,Hull Bay,-64.9544,18.3713,"George A. Mena Scenic Dr, St Thomas 00802, USVI",St. Thomas,U.S. Virgin Islands,
8126,S.S. Dominator (Wreck),-118.4291,33.7682,"221 Rocky Point Rd, Palos Verdes Estates, CA 90274, USA",California,United States,
8129,"Eliza Ramsden, wreck",144.6552,-38.2945,"Unnamed Road, Portsea VIC 3944, Australia",Victoria,Australia,
8133,The Ozone Shipwreck,144.7134,-38.139,"8 The Esplanade, Indented Head VIC 3223, Australia",Victoria,Australia,
8135,Gerstle Cove State Park,-123.3305,38.5676,"Gerstle Cove Rd, Jenner, CA 95450, USA",California,United States,
8139,Sha’ab Zabargad,36.2267,23.5865,,,,
8148,Nyali,39.7101,-4.0482,"Nyali Beach, Kenya",Mombasa County,Kenya,
8162,Pomonte Wreck,10.1192,42.7456,"Via degli Oleandri, 16, 57034 Pomonte LI, Italy",Toscana,Italy,
8163,Decorator Bay,58.7497,23.5213,Oman,,Oman,
8179,"SS Coogee, wreck",144.5685,-38.308,Russia,,Russia,
8197,9 Mile Coral Tree,32.7224,-27.575,South Africa,,South Africa,
8205,Redhook Harbor,-64.8425,18.3272,"East End, St Thomas 00802, USVI",St. Thomas,U.S. Virgin Islands,
8206,Abu Galawa Small,35.5431,24.2507,,,,
8215,La Guasa,-66.7028,11.9574,Venezuela,,Venezuela,
8220,Cala Moli,1.2322,38.9299,"Av. de Cala Molí, 34T, 07830, Illes Balears, Spain",Illes Balears,Spain,
8223,Destin East Jetty,-86.5157,30.3834,"Fort Walton Beach, FL 32548, USA",Florida,United States,
8228,Fish Bowl,-64.8885,18.2768,"St Thomas 00802, USVI",St. Thomas,U.S. Virgin Islands,
8233,French Cap Pinnacle,-64.8397,18.1985,"St Thomas 00802, USVI",St. Thomas,U.S. Virgin Islands,
8245,Helmet Wreck,134.5315,7.4416,,,,
8247,Turtle Cove,134.5379,7.4468,,,,
8250,Blue Holes,134.5449,7.4516,,,,
8276,Back Door,103.2886,10.6208,"M`Pai bei Jungle walk, Krong Preah Sihanouk, Cambodia",Koh Kong Province,Cambodia,
8278,Hin Rap North,102.2067,12.0503,"Soi Sao., Tambon Ko Chang, Amphoe Ko Chang, Chang Wat Trat 23170, Thailand",Chang Wat Trat,Thailand,
8279,Hin Luk Bath,102.2398,11.9948, mu koh Chang  national park,,,
8282,Fafapiti,-151.7408,-16.4699,"Unnamed Road, Bora-Bora, French Polynesia",Îles Sous-le-Vent,French Polynesia,
8283,Tupai,-151.8035,-16.3027,French Polynesia,,French Polynesia,
8285,Bowman Bay,-122.6548,48.4148,"Pacific NW Trail, Anacortes, WA 98221, USA",Washington,United States,
8291,Mosquito Island Reef,98.7741,7.8164,,,,
8292,Koh Khai Nok,98.5153,7.8913,"Phru Nai, Ko Yao District, Phang-nga, Thailand",Phang-nga,Thailand,
8311,The Trench,-80.006,26.751,"Palm Beach County, FL, USA",Florida,United States,
8312,Pinellas County Artificial Reef,-82.8575,27.9413,"Pinellas County, FL, USA",Florida,United States,
8322,Desecheo Island,-67.4802,18.3708,,,,
8324,Black Pearl,-88.0334,17.2191,Belize,,Belize,
8327,Charles P. Minch (Wreck),-81.6994,45.2992,"Northern Bruce Peninsula, ON, Canada",Ontario,Canada,
8328,Ilha do Meio,-32.3929,-3.8185,"Fernando de Noronha National Marine Park - Rua Eurico Cavalcante 174 - Boldró - Fernando de Noronha, 53990-000, Brazil",State of Pernambuco,Brazil,
8330,Glöthe,11.6569,51.9043,"Unnamed Road, 39443 Staßfurt, Germany",Sachsen-Anhalt,Germany,
8335,Horseshoe Lake,-117.8649,52.6981,"AB-93, Jasper, AB T0E 1E0, Canada",Alberta,Canada,
8336,Lake Minniwanka - Cliff's Site,-115.4526,51.2578,"Lake Minnewanka Trail, Improvement District No. 9, AB T0L, Canada",Alberta,Canada,
8337,Lake Minniwanka - Dam Site,-115.4192,51.2709,"Lake Minnewanka Trail, Improvement District No. 9, AB T0L, Canada",Alberta,Canada,
8338,Lake Minniwanka - Town Site,-115.4883,51.2715,"Lake Minnewanka Trail, Bankhead, AB T0L, Canada",Alberta,Canada,
8342,El Fanous East,33.8587,27.555,Egyiptom,,Egyiptom,
8345,Eagle Point,-122.9348,48.431,"San Juan County, WA, USA",Washington,United States,
8373,Koh Man Wichai,100.675,12.8819,,,,
8374,Hin San Chalam,100.9782,12.4608,,,,
8388,Hardeep Wreck (SS Suddhadib),100.9547,12.536,ประเทศไทย,,ประเทศไทย,
8389,Dangerous Reef,35.8549,23.3397,,,,
8397,El Laberinto,-80.4185,21.9919,Cuba,,Cuba,
8398,"Dunraven, wreck",34.1257,27.7027,,,,
8402,Gota Abu Makadi,33.9133,26.9923,"Unnamed Road, Qesm Hurghada, Red Sea Governorate, Egypt",Red Sea Governorate,Egypt,
8404,The Crane,-81.5101,30.6541,"96071 Park Pl, Fernandina Beach, FL 32034, USA",Florida,United States,
8408,Big Brother,34.8447,26.3144,Ägypten,,Ägypten,
8409,Ribbon Reef - 5 Mile,32.69,-27.4892,South Africa,,South Africa,
8410,2 Mile Reef Simons Cave,32.7874,-27.4334,South Africa,,South Africa,
8414,"Ao Khai, Ko Chan",100.9702,12.5162,,,,
8417,Koh Hu Chang,100.6773,12.911,,,,
8421,Cenote Noh-Mozon,-89.3973,20.6387,"Unnamed Road, Yucatán, Mexico",Yucatán,Mexico,
8427,The Crane,-82.8777,27.8936,"Pinellas County, FL, USA",Florida,United States,
8434,"Canyon 1, Pantai Timur",120.1574,-3.6288,"Unnamed Road, Lepangeng, Pitu Riase, Kabupaten Sidenreng Rappang, Sulawesi Selatan 91691, Indonesia",Sulawesi Selatan,Indonesia,
8435,Koh Luam Noi,100.6506,12.9641,"Chon Buri 20180, Thailand",Chon Buri,Thailand,
8439,Spectacular Reef,144.6628,-38.2827,"131 Hesse St, Queenscliff VIC 3225, Australia",Victoria,Australia,
8443,2 Mile Reef - Grand Central,32.8314,-27.392,South Africa,,South Africa,
8444,2 Mile Reef - 2 bouy,32.7126,-27.5011,South Africa,,South Africa,
8455,Vilu Reef Lagoon,72.9992,3.0029,Maldives,,,
8470,Steinbruch Giegenstein,12.5235,50.5805,"Unnamed Road, 08107 Hartmannsdorf bei Kirchberg, Germany",Sachsen,Germany,
8475,Förstergrube bei Sandersdorf,12.2405,51.6253,"Zörbiger Str. 20, 06792 Sandersdorf-Brehna, Germany",Sachsen-Anhalt,Germany,
8485,Blind Reef,33.8989,27.5497,,,,
8491,Diffenbach Point,174.1471,-41.231,"Marlborough 7281, New Zealand",Marlborough,New Zealand,
8492,Gubal Island,33.8128,27.6566,Egypt,,Egypt,
8495,Koh ha,98.756,8.1505,"Khao Thong, Mueang Krabi District, Krabi 81000, Thailand",Krabi,Thailand,
8496,Santiago Wreck,39.6782,-21.437,,,,
8497,3 Mile Reef Hotspots,32.7224,-27.4959,South Africa,,South Africa,
8504,North Mole,115.7256,-32.0534,"N Mole Dr, North Fremantle WA 6159, Australia",Western Australia,Australia,
8515,Koh Talu,98.7751,7.9979,,,,
8517,Robbs Jetty,115.7547,-32.0893,"Indian Ocean, North Coogee WA 6163, Australia",Western Australia,Australia,
8526,Dardanelos,-88.1599,16.7693,"Mundelein Rd, Belize",,Belize,
8533,Brückentinsee,13.252,53.2582,"Unnamed Road, 17279 Lychen, Germany",Brandenburg,Germany,
8537,Montgomery's Reef,-81.376,30.3268,"Atlantic Beach, FL, USA",Florida,United States,
8538,Troy Springs,-82.999,29.9986,"136 NE Troy Springs Rd, Branford, FL 32008, USA",Florida,United States,
8544,Punta Fetovaia,10.1593,42.7256,,,,
8546,Abu Dabab III,34.7784,25.3483,,,,
8560,Jules Cove,-82.8582,27.9124,"Pinellas County, FL, USA",Florida,United States,
8567,"Punta Cormorant, Isla Floreana, Galapagos",-90.4226,-1.2209,"Unnamed Road, Ecuador",Islas Galápagos,Ecuador,
8569,Sharm Salman,34.6687,25.5004,"Unnamed Road, Qesm Marsa Alam, Red Sea Governorate, Egypt",Red Sea Governorate,Egypt,
8571,Sataya Reef West,35.6804,24.1581,,,,
8591,Lucy&#039;s Reef,98.373,7.5972,,,,
8609,Makadi Bay Housereef,33.9015,26.9928,"Makadi Bay، Hurghada, Egypt",Red Sea Governorate,Egypt,
8632,James C. King (Wreck),-81.709,45.2678,"Northern Bruce Peninsula, ON, Canada",Ontario,Canada,
