name,country,latitude,longitude,saved,id
name,country,latitude,longitude,saved,id
name,country,latitude,longitude,saved,id
name,country,latitude,longitude,saved,id
name,country,latitude,longitude,saved,id
Corsica,France,42.188089649999995,9.068413771427695,true,1
New South Wales,Australia,-31.8759835,147.2869493,true,2
Queensland,Australia,-22.1646782,144.5844903,true,3
Attica,Greece,37.9946543,23.79940251269328,true,4
South Carolina,United States,33.6874388,-80.4363743,true,5
Krabi Province,Thailand,8.1111653,99.1097298,true,6
Gauteng,South Africa,-25.9363439,28.0813105,true,7
Chon Buri Province,Thailand,13.1857117,101.1210777,true,8
Phuket Province,Thailand,7.9366015,98.3529292,true,9
South Sinai,Egypt,28.64495635,33.87113129565117,true,10
Pinar del Rio,Cuba,22.312446950000002,-83.93893860318403,true,11
British Columbia,Canada,55.001251,-125.002441,true,12
0000 NA,Curacao,12.1121321,-68.9408894,true,13
Sabah,Malaysia,5.4257359,117.0326392,true,14
Wales,United Kingdom,52.2928116,-3.73893,true,15
Balearic Islands,Spain,39.613432,2.8829184529439633,true,16
Missouri,United States,38.7604815,-92.5617875,true,17
South Ari Atoll,Maldives,3.6123025999999996,72.8556629739359,true,18
Western Australia,Australia,-25.2303005,121.0187246,true,19
The Municipal District of Birr,Ireland,53.1057254,-7.757195629186065,true,20
Vojvodina,Serbia,45.4102776,19.97629919893542,true,21
Central Serbia,Serbia,43.6642492,20.990682367995184,true,22
England,United Kingdom,52.5310214,-1.2649062,true,23
Northern Ireland,United Kingdom,54.5859836,-6.9591554,true,24
Unknown region,Cape Verde,16.0000552,-24.0083947,true,25
Saint Martin (France),France,18.0814066,-63.0467131,true,26
Mojkovac Municipality,Montenegro,42.9868853,19.5180992,true,27
Maan,Jordan,31.1667049,36.941628,true,28
Coquimbo Region,Chile,-30.7546652,-70.9005536,true,29
Capital Region of Denmark,Denmark,55.86178115,12.313735099767246,true,30
Boaco,Nicaragua,12.4768825,-85.4673457,true,31
Kampong Thom,Cambodia,12.5433216,104.8144914,true,32
Western Highlands,Papua New Guinea,-5.6816069,144.2489081,true,33
Örebro County,Sweden,59.37857495,14.988276702344756,true,34
Innlandet,Norway,61.26810555,10.485458802304304,true,35
Alaska,United States,64.4459613,-149.680909,true,36
Arkansas,United States,35.2048883,-92.4479108,true,37
Idaho,United States,43.6447642,-114.015407,true,38
Maryland,United States,39.5162401,-76.9382069,true,39
Georgia,United States,32.3293809,-83.1137366,true,40
Louisiana,United States,30.8703881,-92.007126,true,41
Pennsylvania,United States,40.9699889,-77.7278831,true,42
Virginia,United States,37.1232245,-78.4927721,true,43
South Dakota,United States,44.6471761,-100.348761,true,44
Central Province,Sri Lanka,7.5554942,80.7137847,true,45
French Polynesia,France,-17.0243749,-144.6434898,true,46
47893,San Marino,43.9458623,12.458306,true,47
Northland,New Zealand,-35.3755091,173.9470106440683,true,48
Moka,Mauritius,-20.2218738,57.50275,true,49
Cyprus,Cyprus,34.9823018,33.1451285,true,50
Makkah Region,Saudi Arabia,21.6698063,41.4996029,true,51
Madhya Pradesh,India,23.8143419,77.5340719,true,52
Karlovac County,Croatia,45.2826564,15.4190997,true,53
Red Sea,Egypt,25.5867279,34.16946410259507,true,54
Phang-nga Province,Thailand,8.5058295,98.5680335,true,55
Southern Province,Sri Lanka,6.149,80.73181777500001,true,56
Texas,United States,31.2638905,-98.5456116,true,57
Chumphon Province,Thailand,10.3782724,99.0077685,true,58
Colón,Panama,9.3553005,-79.8974085,true,59
Central Anatolia Region,Turkey,38.76648595,34.54986914773259,true,60
Washington,United States,38.8950368,-77.0365427,true,61
Hawaii,United States,19.593801499999998,-155.42837009716908,true,62
Tortola,British Virgin Islands,18.42105685,-64.63883251023499,true,63
Villa Clara,Cuba,22.70361185,-79.69449684142177,true,64
Mulaku Atoll,Maldives,2.7878094,73.53429865906894,true,65
Central Albania,Albania,41.000028,19.9999619,true,66
Matanzas,Cuba,23.0131338,-80.8328748,true,67
Tennessee,United States,35.7730076,-86.2820081,true,68
Zanzibar Urban/West,Tanzania,-6.1653854,39.2386951,true,69
Ogres novads,Latvia,56.8406494,24.7537645,true,70
Sardinia,Italy,40.0912813,9.0305773,true,71
La Digue Group,Seychelles,-4.48893455,55.23285842351613,true,72
In Salah,Algeria,28.0000272,2.9999825,true,73
North Maalhosmadulu,Maldives,5.6609485,72.76816448632933,true,74
Florida,United States,27.7567667,-81.4639835,true,75
Macedonia and Thrace,Greece,40.789892249999994,23.08366259390037,true,76
Southern Governorate,Bahrain,25.84000695,50.59026934859599,true,77
Nebraska,United States,41.7370229,-99.5873816,true,78
Krasnodar Krai,Russia,45.7684014,39.0261044,true,79
Malé Atoll,Maldives,4.3542989500000004,73.57600320784947,true,80
Eastern,Fiji,-18.970617,-179.05844147787496,true,81
Bay Islands,Honduras,16.3217674,-86.17868327530661,true,82
Khomas,Namibia,-22.9082553,17.09198004041758,true,83
Otjozondjupa,Namibia,-19.9424962,18.395886,true,84
Surat Thani Province,Thailand,9.4674663,98.830042,true,85
East Nusa Tenggara,Indonesia,-8.5656787,120.6978581,true,86
Kansas,United States,38.27312,-98.5821872,true,87
North Ari Atoll,Maldives,4.4389236,72.87168536272713,true,88
Hadhdhunmathi,Maldives,1.8899418,73.3140027327291,true,89
Oshikoto,Namibia,-18.5464046,17.1019606,true,90
Cebu,Philippines,10.2931062,123.9020773,true,91
East Caicos,Turks and Caicos Islands,21.7044976,-71.50424874065345,true,92
California,United States,36.7014631,-118.755997,true,93
Extremadura,Spain,39.1748426,-6.1529891,true,94
Sofala Province,Mozambique,-19.0771666,34.7164804,true,95
Western Cape,South Africa,-33.546977,20.72753,true,96
Saint John,Grenada,12.1444029,-61.71218407854202,true,97
Espírito Santo,Brazil,-19.5687682,-40.1721991,true,98
Macdonnell Region,Australia,-24.4266547,133.4996908826961,true,99
South Nilandhe Atoll,Maldives,2.8473454,72.90295260493295,true,100
name,country,latitude,longitude,saved,id
name,country,latitude,longitude,saved,id
name,country,latitude,longitude,saved,id
name,country,latitude,longitude,saved,id
Chuuk,,7.4393793,151.8515538,false
São Paulo,Brazil,-1.2043218,-47.1583944,true,101
Muharraq Governorate,Bahrain,26.413466149999998,50.67972870771858,true,102
Buenos Aires,Argentina,-34.6037157,-58.381642,true,103
Galicia,Spain,42.61946,-7.863112,true,104
Trang Province,Thailand,7.5892935,99.5032004,true,105
Al-Qassim Province,Saudi Arabia,26.1942235,43.4565711,true,106
Western,Fiji,-17.74939895,177.45294130551258,true,107
South Miladhunmadulu,Maldives,5.786755,73.4184335748727,true,108
North Huvadhu Atoll,Maldives,0.9829526500000001,73.2780939346289,true,109
Baja California Sur,Mexico,25.5818014,-111.5706164,true,110
Bahia,Brazil,-12.285251,-41.9294776,true,111
Galápagos,Ecuador,-0.0606899,-90.673898,true,112
Rio de Janeiro,Brazil,-22.9110137,-43.2093727,true,113
San Juan-Laventille,Trinidad and Tobago,10.675606649999999,-61.47101539649948,true,114
Guernsey,Guernsey,49.4566233,-2.5822348,true,115
Kolhumadulu,Maldives,2.1461655,73.02882449968283,true,116
28063,South Korea,36.66009757073171,127.73727762195122,true,117
Victoria,Australia,-36.5986096,144.6780052,true,118
Zacatecas,Mexico,23.0916177,-102.9333954,true,119
Guadeloupe,France,16.2528827,-61.5686855,true,120
Quintana Roo,Mexico,19.6666671,-88.5000001,true,121
KwaZulu-Natal,South Africa,-28.503833,30.8875009,true,122
Utah,United States,39.4225192,-111.714358,true,123
Pahang,Malaysia,3.6168822,102.5994547,true,124
Chubut Province,Argentina,-43.7128356,-68.7461817,true,125
Stann Creek District,Belize,16.833333,-88.5,true,126
North Carolina,United States,35.6729639,-79.0392919,true,127
Kerala,India,10.3528744,76.5120396,true,128
Felidhu Atoll,Maldives,3.6152492,73.5869986394483,true,129
North Sulawesi,Indonesia,0.6555692,124.090151,true,130
Nantou County,Taiwan,23.90235,120.6909167,true,131
Arizona,United States,34.395342,-111.763275,true,132
Satun Province,Thailand,7.0366682,99.9615397,true,133
Ciego de Avila,Cuba,21.747668599999997,-78.72955802004637,true,134
Castelo Branco,Portugal,39.97675825,-7.446059929966704,true,135
Zhytomyr Oblast,Ukraine,50.9080532,28.3867504,true,136
Schleswig-Holstein,Germany,54.1853998,9.8220089,true,137
Meta,Colombia,3.5000086,-73.0000086,true,138
Bali,Indonesia,-8.3304977,115.0906401,true,139
North Thiladhunmathi,Maldives,7.06072965,72.98966277933317,true,140
Pernambuco,Brazil,-8.4116316,-37.5919699,true,141
Oaxaca,Mexico,17.0,-96.5,true,142
Nevada,United States,39.5158825,-116.853722,true,143
Centre-Val de Loire,France,47.5490251,1.7324062,true,144
Oregon,United States,43.9792797,-120.737257,true,145
Central Sulawesi,Indonesia,-1.6937786,120.8088555,true,146
South Thiladhunmathi,Maldives,6.4499010000000006,72.62648989040409,true,147
Shibh Jazirat Sina',Egypt,29.42868835,33.778194181531624,true,148
Moluccas,Indonesia,-3.118837,129.4207759,true,149
Yucatán,Mexico,20.6845957,-88.8755669,true,150
Saint George,Barbados,13.138402249999999,-59.5443721378594,true,151
Region of Banská Bystrica,Slovakia,48.7411522,19.4528646,true,152
United States Virgin Islands,United States,17.789187,-64.7080574,true,153
Addu Atoll,Maldives,-0.64149345,73.16299780292195,true,154
Jahra,Kuwait,29.2733964,47.4979476,true,155
Umbria,Italy,42.965916,12.490236,true,156
South Maalhosmadulu,Maldives,4.8806627,72.8532557993765,true,157
Łódzkie Voivodship,Poland,51.4721678,19.3460637,true,158
Cherkasy Oblast,Ukraine,49.1460165,31.2271744,true,159
Federation of Bosnia and Herzegovina,Bosnia and Herzegovina,44.3053476,17.5961467,true,160
Oklahoma,United States,34.9550817,-97.2684063,true,161
Gelderland,Netherlands,52.1014041,5.9515701,true,162
Region Zealand,Denmark,55.4864453,11.691349261334938,true,163
Bohol,Philippines,9.833333,124.1615579,true,164
Thessaly and Central Greece,Greece,39.0247815,22.4392143456075,true,165
Puerto Rico,United States,18.2247706,-66.4858295,true,166
Sister Islands,Cayman Islands,19.71988615,-79.79313999026272,true,167
North Miladhunmadulu,Maldives,6.33229975,73.23246349599427,true,168
Cantón Quepos,Costa Rica,9.4127862,-84.0649206132122,true,169
Ontario,Canada,50.000678,-86.000977,true,170
Minnesota,United States,45.9896587,-94.6113288,true,171
Aegean,Greece,37.15010315,25.45507683069038,true,172
"Peloponnese, Western Greece and the Ionian",Greece,37.20440655,22.165093394042977,true,173
New Brunswick,Canada,46.500283,-66.750183,true,174
Sonora,Mexico,29.3333331,-110.6666671,true,175
Muscat Governorate,Oman,23.4830409,58.592088906822184,true,176
Prince Edward Island,Canada,46.503680700000004,-63.59541096896726,true,177
North Nilandhe Atoll,Maldives,3.1314909,72.88435672916549,true,178
Quebec,Canada,52.4760892,-71.8258668,true,179
Guam,United States,13.450125700000001,144.75755102972062,true,180
Mashonaland West Province,Zimbabwe,-18.4554963,29.7468414,true,181
South Sulawesi,Indonesia,-3.6446718,119.9471906,true,182
Bongolava,Madagascar,-18.5916863,46.30781672201059,true,183
East Kalimantan,Indonesia,0.7884397,116.2419977,true,184
Tuscany,Italy,43.4586541,11.1389204,true,185
HM 12,Bermuda,32.29406440451613,-64.7811082651613,true,186
New York,United States,40.7127281,-74.0060152,true,187
Al Wusta Governorate,Oman,19.679297,56.59113398322508,true,188
Baja California,Mexico,30.0338923,-115.1425107,true,189
Tabuk Province,Saudi Arabia,28.3251866,37.6328648,true,190
Faadhippolhu,Maldives,5.3992544,73.5273924090907,true,191
Dodoma Region,Tanzania,-6.0102878,35.8245033,true,192
Autonomous Republic of Crimea,Ukraine,45.6856952,33.9329411,true,193
Newfoundland and Labrador,Canada,53.8217327,-61.2295532,true,194
Central,Fiji,-17.9338436,178.41210304999998,true,195
Monte Plata,Dominican Republic,18.8101455,-69.7845099,true,196
Réunion,France,-21.1309332,55.5265771,true,197
Sánchez Ramírez,Dominican Republic,19.0176147,-70.1448351,true,198
Bashkortostan,Russia,54.4747553,55.9784582,true,199
Liguria,Italy,44.4777617,8.7026296,true,200
Moscow Oblast,Russia,55.5043158,38.0353929,true,201
Riau Islands,Indonesia,-0.1547846,104.5803745,true,202
Couva-Tabaquite-Talparo,Trinidad and Tobago,10.4497669,-61.344388125853015,true,203
Marlborough,New Zealand,-41.47447475,173.8330262577606,true,204
Johor,Malaysia,2.0228821,103.3114564,true,205
Guadalcanal,Solomon Islands,-9.59842095,160.1485117018448,true,206
Colorado,United States,38.7251776,-105.607716,true,207
8499300,Israel,30.8751684,34.7889357,true,208
Karnataka,India,14.5203896,75.7223521,true,209
Waikato,New Zealand,-37.77922725,175.2010323246593,true,210
Middlesex County,Jamaica,18.0927685,-77.24686094329728,true,211
South Australia,Australia,-30.5343665,135.6301212,true,212
Sorsogon,Philippines,12.833333,123.916667,true,213
Indiana,United States,40.3270127,-86.1746933,true,214
Isle of Youth,Cuba,21.9841355,-82.41193055173278,true,215
Sanma,Vanuatu,-15.158134,166.93938648535234,true,216
Paraná,Brazil,-24.4842187,-51.8148872,true,217
Khaet Preah Sihanouk,Cambodia,10.50614075,103.26205644863938,true,218
Southeast Sulawesi,Indonesia,-3.5491199,121.7279646,true,219
Colima,Mexico,19.166667,-104.0,true,220
Gansu,China,35.000074,104.999927,true,221
Micoud,Saint Lucia,13.8250489,-60.975036,true,222
Fujairah Emirate,United Arab Emirates,25.336728100000002,56.172704258882646,true,223
Southwest Papua,Indonesia,-1.09856,131.3525336,true,224
Neuquén Province,Argentina,-38.3695057,-69.832275,true,225
Santa Catarina,Brazil,-27.0628367,-51.114965,true,226
Rayong Province,Thailand,12.7943716,101.3705344,true,227
Federal Dependencies,Venezuela,11.859254100000001,-66.7707980671899,true,228
Volyn Oblast,Ukraine,51.5451167,24.6627893,true,229
Sverdlovsk Oblast,Russia,58.6414755,61.8021546,true,230
Wisconsin,United States,44.4308975,-89.6884637,true,231
Kherson Oblast,Ukraine,46.5421715,33.4079326,true,232
Brittany,France,48.2640845,-2.9202408,true,233
Northeastern Region,Iceland,65.47359965000001,-17.443333920643667,true,234
Belize District,Belize,17.5002768,-88.1988737,true,235
Saint Patrick Parish,Dominica,15.4240429,-61.34185329351388,true,236
Saint Mark Parish,Dominica,15.4240429,-61.34185329351388,true,237
Primorsky Krai,Russia,45.0819456,134.726645,true,238
Amur Oblast,Russia,52.8032368,128.437295,true,239
Terengganu,Malaysia,4.8630743,102.9949297,true,240
West Nusa Tenggara,Indonesia,-8.7892855,117.146169,true,241
Altai Republic,Russia,50.7114101,86.8572186,true,242
Kemerovo Oblast–Kuzbass,Russia,54.5335781,87.342861,true,243
Bay of Plenty,New Zealand,-37.9503756,176.93828736155422,true,244
Illinois,United States,40.0796606,-89.4337288,true,245
Ryazan Oblast,Russia,54.4226732,40.5705246,true,246
'Asir Province,Saudi Arabia,19.166667,43.166667,true,247
Namu,Marshall Islands,7.9871185,168.1615981,true,248
Southland,New Zealand,-45.92542665,167.60684826776085,true,249
Baden-Württemberg,Germany,48.53775,9.041169,true,250
Leningrad oblast,Russia,60.1853296,32.3925325,true,251
Lori Province,Armenia,40.7696272,44.6736646,true,252
Gegharkunik Province,Armenia,40.3030726,45.375739,true,253
Alabama,United States,33.2588817,-86.8295337,true,254
Novosibirsk Oblast,Russia,55.8204953,78.866158,true,255
Minsk Region,Belarus,53.4250605,27.6971358,true,256
Plaisance,Seychelles,-4.65391,55.4680175,true,257
Rio Grande do Norte,Brazil,-6.682461,-36.63327583939849,true,258
Scotland,United Kingdom,56.7861112,-4.1140518,true,259
Saint Barthélemy,France,17.8967693,-62.825598,true,260
Inhambane Province,Mozambique,-22.779116,34.5661741,true,261
Zambales,Philippines,15.23,120.12,true,262
Martinique,France,14.6113732,-60.9620777,true,263
Warmian-Masurian Voivodeship,Poland,53.9311892,21.1260808,true,264
Mato Grosso,Brazil,-12.2115009,-55.5716547,true,265
Dubai,United Arab Emirates,25.2653471,55.2924914,true,266
Andaman and Nicobar Islands,India,12.61123865,92.83165406414926,true,267
Carabobo State,Venezuela,10.215104499999999,-68.04080244083781,true,268
Aceh,Indonesia,4.3685491,97.0253024,true,269
Sucre State,Venezuela,10.429015,-63.56499986509726,true,270
Córdoba,Argentina,-31.4166867,-64.1834193,true,271
Ohio,United States,40.2253569,-82.6881395,true,272
Bavaria,Germany,48.9467562,11.4038717,true,273
Falcon State,Venezuela,11.273945999999999,-69.58342053907381,true,274
North Maluku,Indonesia,0.6301215,127.9720219,true,275
Lubusz Voivodeship,Poland,52.1001754,15.3605075,true,276
Tana River County,Kenya,-1.53651195,39.550837405312166,true,277
Saxony,Germany,50.9295798,13.4585052,true,278
Tambacounda Region,Senegal,14.4750607,-14.4529612,true,279
Michigan,United States,43.6211955,-84.6824346,true,280
Mecklenburg-Vorpommern,Germany,53.7735064,12.5755471,true,281
Republic of Crimea,Russia,45.1813706,34.7915067,true,282
Puerto Plata,Dominican Republic,19.7893977,-70.6940515,true,283
Santo Domingo,Dominican Republic,18.4801972,-69.942111,true,284
Mombasa County,Kenya,-4.03863355,39.64854757888357,true,285
Aimeliik,Palau,7.56514975,134.14696654837343,true,286
Ngatpang,Palau,7.6117591000000004,134.17997318384766,true,287
Airai,Palau,7.1407249,134.64138919128055,true,288
Cienfuegos,Cuba,22.1459864,-80.4530775,true,289
Alberta,Canada,55.001251,-115.002136,true,290
Central Hungary,Hungary,47.50790635,19.24154995847359,true,291
Trat Province,Thailand,12.2593544,102.4268871,true,292
Saxony-Anhalt,Germany,52.0089065,11.7003344,true,293
Brandenburg,Germany,52.8455492,13.2461296,true,294
French Southern and Antarctic Lands,France,-49.237441950000004,69.62275903679347,true,295
Sharjah Emirate,United Arab Emirates,25.2311534,54.21900831355923,true,296
Al Asimah,Kuwait,29.3796532,47.9734174,true,297
Cayo District,Belize,16.833333,-88.916667,true,298
Veracruz,Mexico,19.333333,-96.666667,true,299
Bà Rịa - Vũng Tàu Province,Vietnam,10.5738801,107.3284362,true,300
Gracias a Dios,Honduras,15.4333305,-84.14868695419547,true,301
Central Region,Malta,35.8885993,14.4476911,true,302
Sarawak,Malaysia,2.5023855,112.9547283,true,303
Praslin group,Seychelles,-4.3250708499999995,55.73560817266318,true,304
Hainaut,Belgium,50.36192,4.125216975993737,true,305
Kwale,Kenya,-4.1836067,39.105094975232994,true,306
San Andrés and Providencia,Colombia,13.35311655,-81.37498889457396,true,307
Kedah,Malaysia,5.8098265,100.6715035,true,308
Havana,Cuba,23.135305,-82.3589631,true,309
Diego Martin,Trinidad and Tobago,10.71385965,-61.579355509504495,true,310
Salto,Uruguay,-31.3571565,-57.004446,true,311
Khánh Hòa Province,Vietnam,12.2980751,108.9950386,true,312
Goa,India,15.3004543,74.0855134,true,313
Gabès,Tunisia,33.8439408,9.400138,true,314
Tierra del Fuego Province,Argentina,-54.4071064,-67.8974895,true,315
Thuringia,Germany,50.9014721,11.0377839,true,316
Bình Thuận Province,Vietnam,11.1041572,108.1832931,true,317
Medina Province,Saudi Arabia,25.1354363,39.162594,true,318
Pattani Province,Thailand,6.6997443,101.3989917,true,319
Los Ríos,Ecuador,-1.3397668,-79.3666965,true,320
Kiên Giang Province,Vietnam,9.9904962,105.2435248,true,321
Eastern Province,Saudi Arabia,23.3036077,50.1258804,true,322
Autonomous Community of the Basque Country,Spain,42.9911816,-2.5543023,true,323
Aragua State,Venezuela,9.92019985,-66.88746940104221,true,324
Masbate,Philippines,12.166667,123.583333,true,325
Sicily,Italy,37.587794,14.155048,true,326
Republic of Karelia,Russia,62.6194031,33.4920267,true,327
Iowa,United States,41.9216734,-93.3122705,true,328
Jazan Province,Saudi Arabia,17.333333,42.666667,true,329
District of Al-Jufra,Libya,26.8234472,18.1236723,true,330
Stara Zagora,Bulgaria,42.6073975,25.4856617,true,331
Malampa,Vanuatu,-16.5255069,168.1069154,true,332
Isiolo,Kenya,1.4419683,38.4313975,true,333
Hardap,Namibia,-24.4140944,17.4134051,true,334
Zanzibar North,Tanzania,-5.9347636,39.2842761,true,335
Alagoas,Brazil,-9.6611661,-36.6502426,true,336
South Huvadhu Atoll,Maldives,0.30417835,73.21247455719056,true,337
Nouvelle-Aquitaine,France,45.4039367,0.3756199,true,338
Prachuap Khiri Khan Province,Thailand,12.0432669,99.7487235,true,339
Pwani Region,Tanzania,-7.1160874,38.7300111,true,340
Wyoming,United States,43.1700264,-107.568534,true,341
Northern Governorate,Bahrain,26.1551249,50.5344606,true,342
Sancti Spiritus,Cuba,21.7322483,-79.62330349686954,true,343
Abu Dhabi Emirate,United Arab Emirates,24.0002488,53.9994829,true,344
Camagüey,Cuba,21.3791765,-77.9183681,true,345
Lower Kartli,Georgia,41.6809707,44.0287382,true,346
Walloon Brabant,Belgium,50.6402809,4.6667145,true,347
Guerrero,Mexico,17.666667,-100.0,true,348
Zanzibar South & Central,Tanzania,-6.2083752,39.3579634,true,349
Tanga Region,Tanzania,-5.202134,38.2275548,true,350
Tamaulipas,Mexico,23.9891553,-98.7026825,true,351
East Java,Indonesia,-7.6977397,112.4914199,true,352
Veraguas,Panama,8.241413099999999,-81.11197066772692,true,353
Nabeul,Tunisia,36.4512897,10.7355915,true,354
Al Shahaniya,Qatar,25.3336984,51.2295295,true,355
Selangor,Malaysia,3.2083304,101.304146,true,356
Nayarit,Mexico,22.0000001,-105.0000001,true,357
North Darfur State,Sudan,16.0,26.0,true,358
Region of Crete,Greece,35.28008255,24.638844023828177,true,359
Guarico State,Venezuela,8.0018709,-66.1109318,true,360
Canton Mersch,Luxembourg,49.8158683,6.1296751,true,361
Toledo District,Belize,16.28022575,-88.55432196222363,true,362
Bangkok,Thailand,13.8245796,100.6224463,true,363
Yalova,Turkey,40.5928976,29.077611679403788,true,364
South Holland,Netherlands,51.9966792,4.5597397,true,365
Massachusetts,United States,42.3788774,-72.032366,true,366
Republika Srpska,Bosnia and Herzegovina,44.669577200000006,17.365715484504605,true,367
Center District,Israel,32.08428275,34.916873627811576,true,368
Provence-Alpes-Côte d'Azur,France,44.0580563,6.0638506,true,369
Flemish Brabant,Belgium,50.8686516,4.7886237984620905,true,370
Uri,Switzerland,46.7864413,8.6420159,true,371
Appenzell Innerrhoden,Switzerland,47.3007262,9.3991527,true,372
Basel-Landschaft,Switzerland,47.5092938,7.6588333,true,373
Maputo Province,Mozambique,-25.5445167,32.4578753,true,374
Manawatū-Whanganui,New Zealand,-39.6407734,175.57135568879124,true,375
Plaines Wilhems,Mauritius,-20.3035131,57.49907098076055,true,376
Khabarovsk Krai,Russia,51.6312684,136.121524,true,377
Styria,Austria,47.2500001,15.1666665,true,378
Rivne Oblast,Ukraine,51.2074112,26.5208033,true,379
Santiago Metropolitan Region,Chile,-33.5739341,-70.6205518,true,380
Rio Grande do Sul,Brazil,-29.8425284,-53.7680577,true,381
Bourgogne-Franche-Comté,France,47.0510946,5.0740568,true,382
Antique,Philippines,11.1705066,122.083333,true,383
Perak,Malaysia,4.812181,100.9797908,true,384
Saint Luke Parish,Dominica,15.4240429,-61.34185329351388,true,385
Bern,Switzerland,46.9484742,7.4521749,true,386
Overijssel,Netherlands,52.4254143,6.4610611,true,387
Nelson,New Zealand,-41.2710849,173.2836756,true,388
Perm Krai,Russia,58.5951603,56.3159546,true,389
Kuyavian-Pomeranian Voivodeship,Poland,53.3220016,18.3392939,true,390
Northern Region,Malta,35.90221125,14.413771221238456,true,391
East Flanders,Belgium,51.0375423,3.8117830113324556,true,392
Guangdong Province,China,23.1357694,113.1982688,true,393
La Altagracia,Dominican Republic,18.58832045,-68.60524379863634,true,394
Departamento de Cabañas,El Salvador,13.8000382,-88.9140683,true,395
Durazno,Uruguay,-32.8755548,-56.0201525,true,396
98000,Monaco,43.7323492,7.4276832,true,397
Sonsorol,Palau,5.3783537,132.9102573,true,398
Mitiaro,Cook Islands,-19.99697155,-157.78587140620786,true,399
Upravna Enota Litija,Slovenia,46.1199444,14.8153333,true,400
New Valley,Egypt,26.2540493,29.2675469,true,401
Yazd Province,Iran,32.6475314,54.5643516,true,402
Järva maakond,Estonia,58.7523778,25.3319078,true,403
Quảng Nam Province,Vietnam,15.9266657,107.9650855,true,404
Free State,South Africa,-28.8166236,24.991639,true,405
Loreto,Peru,-6.8699697,-75.0458515,true,406
Middle,Isle of Man,54.1936805,-4.5591148,true,407
Ulytau Region,Kazakhstan,48.1012954,66.7780818,true,408
Sangre Grande,Trinidad and Tobago,10.7466905,-61.0840075,true,409
Obwalden,Switzerland,46.7985624,8.2319736,true,410
Tasman,New Zealand,-41.5000831,172.8344077,true,411
Krasnoyarsk Krai,Russia,64.6863136,97.7453061,true,412
Olancho,Honduras,15.2572432,-86.0755145,true,413
Sibiu,Romania,45.9852129,24.6859225,true,414
Alta Verapaz,Guatemala,15.5855545,-90.345759,true,415
Kaunas County,Lithuania,55.3500003,23.7499997,true,416
North Kordofan State,Sudan,14.5844444,29.4917691,true,417
Vardar Region,North Macedonia,41.6171214,21.7168387,true,418
Haʻapai,Tonga,-19.9160819,-175.202642,true,419
Antigua,Antigua and Barbuda,17.2234721,-61.9554608,true,420
Kraj Vysočina,Czechia,49.7439047,15.3381061,true,421
Carinthia,Austria,46.7500001,13.8333333,true,422
Valencian Community,Spain,39.6819591,-0.7654406,true,423
San Pedro de Macorís,Dominican Republic,18.5116478,-69.4799563,true,424
Xinjiang,China,42.4804953,85.4633464,true,425
Prague,Czechia,50.0596288,14.446459273258009,true,426
Autonomous City of Buenos Aires,Argentina,-34.6037157,-58.381642,true,427
Community of Madrid,Spain,40.5248319,-3.771562775451811,true,428
Silesian Voivodeship,Poland,50.5687422,19.2343995,true,429
Liège,Belgium,50.6450944,5.5736112,true,430
Region of Košice,Slovakia,48.676291,21.289816758617043,true,431
Vavaʻu,Tonga,-18.62315975,-174.00203980987774,true,432
Northwest,Czechia,50.47307625,13.746062777214284,true,433
Region of Prešov,Slovakia,49.1117685,21.18759776682304,true,434
Negros Occidental,Philippines,10.416667,123.0,true,435
Southern Region,Malta,35.90221125,14.413771221238456,true,436
Al Batinah South Governorate,Oman,23.50837275,57.60419570001521,true,437
Entre Ríos Province,Argentina,-31.6252842,-59.3539578,true,438
Departamento de Sonsonate,El Salvador,13.7115105,-89.66058419725155,true,439
San Luis Potosi,Mexico,22.5000001,-100.4949145,true,440
Chiapas,Mexico,16.5000001,-92.5000001,true,441
Hawke's Bay,New Zealand,-39.52565115,176.7611456576855,true,442
Fribourg,Switzerland,46.6789116,7.1027113,true,443
Flacq,Mauritius,-20.2218172,57.720941101603415,true,444
Saint George Parish,Dominica,15.4240429,-61.34185329351388,true,445
Limburg,Belgium,50.9977937,5.445357520264672,true,446
Lower Saxony,Germany,52.8398531,9.075962,true,447
Santa Rosa,Guatemala,14.150152349999999,-90.35088183533747,true,448
Chelyabinsk Oblast,Russia,54.4223954,61.1865846,true,449
Southern Albania,Albania,40.36856830000001,20.136327773799778,true,450
Ilam Province,Iran,33.1545696,46.7576343,true,451
María Trinidad Sánchez,Dominican Republic,19.4429844,-69.99874035946428,true,452
Solothurn,Switzerland,47.31874,7.6698284,true,453
Red Sea State,Sudan,20.0,36.0,true,454
Region of Žilina,Slovakia,49.1775455,19.205817977591973,true,455
Mahdia,Tunisia,35.340938300000005,10.604195711689897,true,456
Valparaiso Region,Chile,-32.5976089,-70.8529753,true,457
Lesser Poland Voivodeship,Poland,49.790952,20.3793521,true,458
Cantabria,Spain,43.1595664,-4.0878382,true,459
Sarangani,Philippines,5.874722,125.275278,true,460
Mtwara Region,Tanzania,-10.6990264,39.0217984,true,461
Antwerp,Belgium,51.2211097,4.3997081,true,462
North Brabant,Netherlands,51.6017723,5.4441391,true,463
New Hampshire,United States,43.4849133,-71.6553992,true,464
Normandy,France,49.0677708,0.3138532,true,465
Zurich,Switzerland,47.3744489,8.5410422,true,466
Cortés,Honduras,15.47840725,-88.03438575252127,true,467
Tasmania,Australia,-42.035067,146.6366887,true,468
Region of Southern Denmark,Denmark,55.378426250000004,9.13180637450161,true,469
Hong Kong,China,22.2793278,114.1628131,true,470
Lower Silesian Voivodeship,Poland,50.9206028,16.4946351,true,471
Médenine,Tunisia,32.981998700000005,11.287025364730832,true,472
Ile-de-France,France,48.6443057,2.7537863,true,473
Guantánamo,Cuba,20.1431797,-75.2034783,true,474
Biobío Region,Chile,-37.3391407,-72.4106825,true,475
Osaka Prefecture,Japan,34.661629000000005,135.49992679245517,true,476
Pathum Thani Province,Thailand,14.048667,100.5640405,true,477
Lucerne,Switzerland,47.0505452,8.3054682,true,478
Subcarpathian Voivodeship,Poland,49.9927121,22.177107,true,479
Qazvin Province,Iran,36.0156291,49.8398161,true,480
Tel Aviv District,Israel,32.0956658,34.80625679878922,true,481
Minas Gerais,Brazil,-18.5264844,-44.1588654,true,482
South Eastern Region,Malta,35.90221125,14.413771221238456,true,483
St. Gallen,Switzerland,47.425618,9.3762397,true,484
Capital Governorate,Bahrain,26.4243233,50.47472512345479,true,485
New Jersey,United States,40.0757384,-74.4041622,true,486
Drenthe,Netherlands,52.9067922,6.6368423,true,487
Bataan,Philippines,14.6436031,120.4657622,true,488
Samara Oblast,Russia,53.2128813,50.8914633,true,489
Geneva,Switzerland,46.2047169,6.1423106290939335,true,490
Sevastopol,Ukraine,44.5655503,33.45959860374677,true,491
Wellington,New Zealand,-41.2887953,174.7772114,true,492
Andalusia,Spain,37.3399964,-4.5811614,true,493
Kabardino-Balkaria,Russia,43.4428286,43.4204809,true,494
North Governorate,Lebanon,34.3317701,35.94369639224921,true,495
Samaná,Dominican Republic,19.17799125,-69.6510264513044,true,496
Pays de la Loire,France,47.6594864,-0.8186143,true,497
Occitania,France,43.6487851,2.3435684,true,498
Bolívar,Colombia,9.3660477,-74.8023636,true,499
Tatarstan,Russia,55.448217,50.4763591,true,500
Maine,United States,45.709097,-68.8590201,true,501
Apulia,Italy,40.9842539,16.6210027,true,502
Thurgau,Switzerland,47.5859649,9.1428769,true,503
West Flanders,Belgium,51.04047465,2.9994213387887116,true,504
Melekeok,Palau,7.4954144,134.636753,true,505
Leyte,Philippines,10.95,124.85,true,506
Gisborne,New Zealand,-38.661326,178.0206487,true,507
Jalisco,Mexico,20.3333331,-103.6666671,true,508
Gozo Region,Malta,36.0467778,14.25825649123654,true,509
Tanintharyi Region,Myanmar,13.0143442,98.7441719,true,510
North Denmark Region,Denmark,56.8152793,9.727330772696376,true,511
Vitsebsk Region,Belarus,55.2381972,28.7742203,true,512
Rivière du Rempart District,Mauritius,-20.0667738,57.65058957251499,true,513
Mato Grosso do Sul,Brazil,-19.5852564,-54.4794731,true,514
Moravia-Silesia,Czechia,49.860275,18.038654134727693,true,515
North West,South Africa,-26.1347819,25.6546729,true,516
Batangas,Philippines,13.9146826,121.0867566,true,517
Antioquia,Colombia,7.0000085,-75.5000086,true,518
Atsimo-Andrefana,Madagascar,-23.0907053,44.40133257710572,true,519
Aitutaki,Cook Islands,-18.88837815,-159.7831878170802,true,520
Montana,United States,47.3752671,-109.638757,true,521
Sucre,Colombia,9.0,-75.0,true,522
Abruzzo,Italy,42.227681,13.854983,true,523
Podlaskie Voivodeship,Poland,53.2668455,22.8525787,true,524
Taranaki,New Zealand,-39.3848064,174.19735050943854,true,525
Kaliningrad,Russia,54.70464845,20.456566646621738,true,526
Friuli-Venezia Giulia,Italy,46.151042,13.055904,true,527
Grand Port,Mauritius,-20.3897284,57.61607615394482,true,528
Vidzeme,Latvia,57.310217699999995,26.02479104918202,true,529
Occidental Mindoro,Philippines,13.0000021,120.9166666,true,530
Glarus,Switzerland,46.9796562,9.108812,true,531
Razavi Khorasan,Iran,35.4795009,59.0237291,true,532
Ceará,Brazil,-5.3264703,-39.7156073,true,533
Gilan Province,Iran,37.1515627,49.6389743,true,534
Montevideo,Uruguay,-34.9058916,-56.1913095,true,535
Marche,Italy,43.3458388,13.1415872,true,536
Hesse,Germany,50.6080651,9.0284647,true,537
Otago,New Zealand,-45.39750525,170.1778918093833,true,538
Bushehr Province,Iran,28.8936645,51.3204877,true,539
Romblon,Philippines,12.5886411,122.1933517,true,540
Greater Poland Voivodeship,Poland,52.1458506,17.397672,true,541
Palawan,Philippines,11.0798978,120.93734215474105,true,542
Tripoli,Libya,32.896672,13.1777923,true,543
Maldonado,Uruguay,-34.9087162,-54.9582718,true,544
Connecticut,United States,41.6500201,-72.7342163,true,545
Puducherry,India,10.91564885,79.80694879844232,true,546
Siquijor,Philippines,9.18,123.58,true,547
Campania,Italy,40.860672,14.843984,true,548
Ardabil Province,Iran,38.4583983,47.9313001,true,549
Neuchâtel,Switzerland,46.9895828,6.9292641,true,550
North Rhine-Westphalia,Germany,51.4789205,7.5543751,true,551
Vilnius County,Lithuania,54.82269205,25.249659536044316,true,552
Departamento de Santa Ana,El Salvador,14.114974499999999,-89.56791987293877,true,553
Michoacán,Mexico,19.207098,-101.878113,true,554
Federal District,Brazil,-15.7754462,-47.7970891,true,555
Rhode Island,United States,41.7962409,-71.5992372,true,556
Oriental Mindoro,Philippines,13.2,121.2,true,557
Mississippi,United States,32.9715285,-89.7348497,true,558
Masovian Voivodeship,Poland,52.5461934,21.2073404,true,559
Guangxi,China,24.0,109.0,true,560
Grisons,Switzerland,46.6960615,9.6027351,true,561
Saskatchewan,Canada,55.5321257,-106.141224,true,562
Aargau,Switzerland,47.412396,8.1948321,true,563
Mayabeque,Cuba,22.82541565,-82.07010620179815,true,564
Northern Samar,Philippines,12.42,124.81,true,565
Andhra Pradesh,India,15.9240905,80.1863809,true,566
Tver Oblast,Russia,57.1134475,35.1744428,true,567
Aqaba,Jordan,29.5266483,35.0075433,true,568
Holy Cross Voivodeship,Poland,50.7504894,20.7829122,true,569
Auckland,New Zealand,-36.5412811,174.5506104914412,true,570
Zug,Switzerland,47.1486137,8.5539378,true,571
Region of Trnava,Slovakia,48.318644500000005,17.64844174734737,true,572
Kentucky,United States,37.5726028,-85.1551411,true,573
Grand Est,France,48.4845157,6.113035,true,574
Mazandaran Province,Iran,36.3159159,51.8968597,true,575
Negros Oriental,Philippines,9.75,123.0,true,576
Emilia-Romagna,Italy,44.525696,11.039437,true,577
Region of Murcia,Spain,37.9166355,-1.4779797,true,578
Diana Region,Madagascar,-13.108811750000001,49.13889997926927,true,579
Davao del Norte,Philippines,7.6179228,125.6832687,true,580
Keserwan-Jbeil Governorate,Lebanon,34.0769528,35.814603939937754,true,581
Vermont,United States,44.5990718,-72.5002608,true,582
Central Denmark Region,Denmark,56.23564835,9.234625027778005,true,583
Veneto,Italy,45.6476663,11.8665254,true,584
Mpumalanga,South Africa,-26.276849,30.1500153,true,585
Flevoland,Netherlands,52.4484375,5.4235397,true,586
Soufrière,Saint Lucia,13.8522789,-61.023809362556804,true,587
Northern Albania,Albania,41.95998245,19.991989062424462,true,588
Pelagonia Region,North Macedonia,41.230157000000005,21.457169901765802,true,589
Central Moravia,Czechia,49.6518253,17.28867442179657,true,590
Asturias,Spain,43.3133868,-5.94192,true,591
North Holland,Netherlands,52.7212825,4.820665,true,592
Mangystau Region,Kazakhstan,43.7362452,53.1681252,true,593
Region of Trenčín,Slovakia,48.902716,18.229133544561932,true,594
Hormozgan Province,Iran,27.7198095,56.335807,true,595
Algiers,Algeria,36.7753606,3.0601882,true,596
Autonomous Republic of Adjara,Georgia,41.67315085,41.91966521300377,true,597
Aragon,Spain,41.3787291,-0.7639373,true,598
Al-Daayen,Qatar,25.50974195,51.442269908131465,true,599
Liaoning,China,41.2374106,122.9955469,true,600
Fujian,China,26.193218,118.2208721,true,601
Alborz Province,Iran,35.9413239,50.7884216,true,602
Vorarlberg,Austria,47.25,9.9166667,true,603
Rarotonga,Cook Islands,-21.236831199999997,-159.77747437744517,true,604
Utrecht,Netherlands,52.080985600000005,5.12768396945229,true,605
Hauts-de-France,France,50.1024606,2.7247515,true,606
Aklan,Philippines,11.6297894,122.2481177,true,607
Kyiv Oblast,Ukraine,50.178595,30.4924884,true,608
Lombardy,Italy,45.5703694,9.7732524,true,609
National Capital District,Papua New Guinea,-9.416667,147.166667,true,610
Southwest,Czechia,49.328097299999996,13.944387128542125,true,611
Upper Austria,Austria,48.25,14.0,true,612
Tamil Nadu,India,10.9094334,78.3665347,true,613
Delaware,United States,38.6920451,-75.4013315,true,614
Northeast,Czechia,50.2976846,15.907500197431371,true,615
Wallis,Switzerland,46.2303063,7.6605757,true,616
North District,Israel,32.861942,35.474089203937055,true,617
Chiang Mai Province,Thailand,18.6951714,98.4462684,true,618
Region of Bratislava,Slovakia,48.3304055,17.179440158077995,true,619
Moscow,Russia,55.625578,37.6063916,true,620
Auvergne-Rhône-Alpes,France,45.2968119,4.6604809,true,621
Free Hanseatic City of Bremen,Germany,53.144869,8.6932343,true,622
Haifa District,Israel,32.63042969999999,34.980099179346794,true,623
Dakar Region,Senegal,14.7765117,-17.3226387,true,624
Canterbury,New Zealand,-43.49417615,171.8098447584145,true,625
Beirut Governorate,Lebanon,33.88922645,35.50255852895232,true,626
Black River,Mauritius,-20.3331919,57.41302261302706,true,627
Zeeland,Netherlands,51.4162975,3.7028061,true,628
Goiás,Brazil,-15.9323662,-50.1392928,true,629
Frisia,Netherlands,53.0923689,5.777043,true,630
Lviv Oblast,Ukraine,49.6512234,23.8266948,true,631
Rhineland-Palatinate,Germany,49.9531599,7.310646,true,632
Sistan and Baluchestan Province,Iran,28.1292481,60.8236848,true,633
Nova Scotia,Canada,45.1960403,-63.1653789,true,634
Lazio,Italy,41.9808038,12.7662312,true,635
Shanghai,China,31.2312707,121.4700152,true,636
Calabria,Italy,39.0565974,16.5249864,true,637
Río Negro Province,Argentina,-40.4811973,-67.6145911,true,638
Camiguin,Philippines,9.1739753,124.7256992,true,639
Masaya,Nicaragua,12.0008289,-86.0513672,true,640
Nidwalden,Switzerland,46.942756,8.4119773,true,641
Port Louis,Mauritius,-20.1624522,57.5028044,true,642
Mykolaiv Oblast,Ukraine,47.3886032,31.9442334,true,643
Davao de Oro,Philippines,7.45,126.07,true,644
Shefa Province,Vanuatu,-17.32839675,168.25473162821086,true,645
Southern Leyte,Philippines,10.3475099,125.1250896,true,646
Pamplemousses,Mauritius,-20.098772750000002,57.57444720660946,true,647
Pomeranian Voivodeship,Poland,54.24556,18.1099,true,648
Maharashtra,India,18.9068356,75.6741579,true,649
La Romana,Dominican Republic,18.4272786,-68.9734597,true,650
Sololá,Guatemala,14.70394125,-91.2828180118769,true,651
Mount Lebanon Governorate,Lebanon,33.73730495,35.59988980169895,true,652
Murmansk Oblast,Russia,68.0000418,33.9999151,true,653
Central Bohemia,Czechia,50.0601579,13.83074794209991,true,654
Saarland,Germany,49.3841872,6.9537369,true,655
Piedmont,Italy,45.060735,7.923549,true,656
Catalonia,Spain,41.8523094,1.5745043,true,657
Burgenland,Austria,47.5000001,16.4166666,true,658
Northern,Fiji,-16.403889749999998,179.04897,true,659
Lublin Voivodeship,Poland,50.9358672,22.8307732,true,660
Skopje Region,North Macedonia,41.97656105,21.462439778839435,true,661
Ticino,Switzerland,46.3351913,8.7525902,true,662
Namur,Belgium,50.4665284,4.8661892,true,663
Jetisu Region,Kazakhstan,45.6961199,78.9756742,true,664
Castile-La Mancha,Spain,39.4177902,-2.6232332,true,665
Manitoba,Canada,55.001251,-97.001038,true,666
Holguín,Cuba,20.91155765,-75.78919775863332,true,667
Trentino-Alto Adige/Südtirol,Italy,46.441472,11.282121,true,668
South District,Israel,30.682333399999997,34.88242290754138,true,669
South Governorate,Lebanon,33.3403187,35.30384405670492,true,670
Opole Voivodeship,Poland,50.8918612,17.9321175,true,671
Izabal,Guatemala,15.5750087,-88.97888988249088,true,672
Vaud,Switzerland,46.6356963,6.5320717,true,673
Lima,Peru,-12.0621065,-77.0365256,true,674
Lower Austria,Austria,48.2817813,15.7632457,true,675
Nakhon Si Thammarat Province,Thailand,8.6772337,99.7309635,true,676
Eastern Cape,South Africa,-32.2171831,26.6386401,true,677
Valle del Cauca,Colombia,3.6984053,-76.5501996,true,678
Schwyz,Switzerland,47.0571976,8.7222073,true,679
West Pomeranian Voivodeship,Poland,53.5450793,15.5661586,true,680
Departamento de San Salvador,El Salvador,13.770234550000001,-89.15835723551064,true,681
Basel-City,Switzerland,47.5579097,7.5927728,true,682
Penang,Malaysia,5.4065013,100.2559077,true,683
Salzburg,Austria,47.7981346,13.0464806,true,684
Guayas,Ecuador,-2.0,-80.0,true,685
Labuan,Malaysia,5.3174030000000005,115.21894081832471,true,686
Hawalli,Kuwait,29.3232305,48.1160653045448,true,687
Erongo Region,Namibia,-22.0278147,15.389358,true,688
Camarines Norte,Philippines,14.166667,122.75,true,689
Puebla,Mexico,18.833333,-98.0,true,690
Mayotte,France,-12.823048,45.1520755,true,691
Astana,Kazakhstan,51.1282205,71.4306682,true,692
,Vanuatu,-16.5255069,168.1069154,false
,Bahrain,26.1551249,50.5344606,false
New Mexico,United States,34.5802074,-105.996047,true,693
Beqaa Governorate,Lebanon,33.8750629,35.843409,true,694
Northwest Territories,Canada,61.0666922,-107.991707,true,695
Saint Kitts,Saint Kitts and Nevis,17.250512,-62.6725973,true,696
Yangon,Myanmar,17.1750495,95.9999652,true,697
,Indonesia,-2.4833826,117.8902853,false
,Venezuela,8.0018709,-66.1109318,false
,Luxembourg,49.8158683,6.1296751,false
,Sweden,59.6749712,14.5208584,false
,São Tomé and Príncipe,0.9713095,7.02255,false
,Montenegro,42.9868853,19.5180992,false
,Jordan,31.1667049,36.941628,false
,Dominican Republic,19.0974031,-70.3028026,false
,Cambodia,12.5433216,104.8144914,false
,Singapore,1.357107,103.8194992,false
,Papua New Guinea,-5.6816069,144.2489081,false
,San Marino,43.9458623,12.458306,false
,Sri Lanka,7.5554942,80.7137847,false
,Finland,63.2467777,25.9209164,false
,Portugal,39.6621648,-8.1353519,false
,Colombia,4.099917,-72.9088133,false
,Malta,35.8885993,14.4476911,false
,Albania,41.000028,19.9999619,false
,Grenada,12.1360374,-61.6904045,false
,Saudi Arabia,25.6242618,42.3528328,false
,Cayman Islands,19.703182249999998,-79.9174627243246,false
,Ukraine,49.4871968,31.2718321,false
,Cuba,23.0131338,-80.8328748,false
,Latvia,56.8406494,24.7537645,false
,Algeria,28.0000272,2.9999825,false
,France,46.603354,1.8883335,false
,Cape Verde,16.0000552,-24.0083947,false
,Slovakia,48.7411522,19.4528646,false
,Israel,30.8124247,34.8594762,false
,Senegal,14.4750607,-14.4529612,false
,Kenya,1.4419683,38.4313975,false
,Malaysia,4.5693754,102.2656823,false
,Iceland,64.9841821,-18.1059013,false
,Madagascar,-18.779148749999997,46.71217161656727,false
,Kuwait,29.2733964,47.4979476,false
,Bosnia and Herzegovina,44.3053476,17.5961467,false
,Philippines,12.7503486,122.7312101,false
,United States,39.7837304,-100.445882,false
,Cyprus,34.9823018,33.1451285,false
,Turkey,38.9597594,34.9249653,false
,Zimbabwe,-18.4554963,29.7468414,false
,China,35.000074,104.999927,false
,Saint Lucia,13.8250489,-60.975036,false
,Armenia,40.7696272,44.6736646,false
,Belarus,53.4250605,27.6971358,false
,Qatar,25.3336984,51.2295295,false
,Netherlands,52.2434979,5.6343227,false
,Australia,-24.7761086,134.755,false
,Dominica,19.0974031,-70.3028026,false
,Serbia,44.1534121,20.55144,false
,Mauritius,-20.2759451,57.5703566,false
,Libya,26.8234472,18.1236723,false
,Ireland,52.865196,-7.9794599,false
,Maldives,3.7203503,73.2244152,false
,British Virgin Islands,18.4024395,-64.5661642,false
Isabel,Solomon Islands,-8.7053941,159.1070693851845,true,698
,Spain,39.3260685,-4.8379791,false
,United Arab Emirates,24.0002488,53.9994829,false
,Georgia,41.6809707,44.0287382,false
,Belgium,50.6402809,4.6667145,false
,Guernsey,49.4566233,-2.5822348,false
,Monaco,43.7323492,7.4276832,false
,Taiwan,23.9739374,120.9820179,false
,Solomon Islands,-8.7053941,159.1070693851845,false
,Thailand,14.8971921,100.83273,false
,Niue,-19.0536414,-169.861341,false
,El Salvador,13.8000382,-88.9140683,false
,Italy,42.6384261,12.674297,false
,Uruguay,-32.8755548,-56.0201525,false
,Oman,21.0000287,57.0036901,false
,Fiji,-18.1239696,179.0122737,false
,United Kingdom,54.7023545,-3.2765753,false
,Palau,5.3783537,132.9102573,false
,Germany,51.1638175,10.4478313,false
,Canada,61.0666922,-107.991707,false
,South Korea,36.638392,127.6961188,false
,Barbados,13.1500331,-59.5250305,false
,Sint Maarten,18.0423736,-63.0549948,false
,Saint Vincent and the Grenadines,12.90447,-61.2765569,false
,Marshall Islands,8.230816999999998,167.7953223704529,false
,Argentina,-34.9964963,-64.9672817,false
,Cook Islands,-19.99697155,-157.78587140620786,false
,Slovenia,46.1199444,14.8153333,false
,Egypt,26.2540493,29.2675469,false
,Bahamas,24.7736546,-78.0000547,false
,India,22.3511148,78.6677428,false
,Iran,32.6475314,54.5643516,false
,Saint Kitts and Nevis,17.250512,-62.6725973,false
,Chile,-31.7613365,-71.3187697,false
,Estonia,58.7523778,25.3319078,false
,Vietnam,15.9266657,107.9650855,false
,South Africa,-28.8166236,24.991639,false
,Peru,-6.8699697,-75.0458515,false
,Isle of Man,54.1936805,-4.5591148,false
,Kazakhstan,48.1012954,66.7780818,false
,Japan,36.5748441,139.2394179,false
,Denmark,55.670249,10.3333283,false
,Jamaica,18.1850507,-77.3947693,false
,Trinidad and Tobago,10.7466905,-61.0840075,false
,Mozambique,-19.302233,34.9144977,false
,Seychelles,-4.6574977,55.4540146,false
,Switzerland,46.7985624,8.2319736,false
,Ecuador,-1.3397668,-79.3666965,false
,New Zealand,-41.5000831,172.8344077,false
,Hungary,47.1817585,19.5060937,false
,Russia,64.6863136,97.7453061,false
,Norway,61.1529386,8.7876653,false
,Honduras,15.2572432,-86.0755145,false
,Romania,45.9852129,24.6859225,false
,Brazil,-10.3333333,-53.2,false
,Austria,47.59397,14.12456,false
,Guatemala,15.5855545,-90.345759,false
,Panama,8.559559,-81.1308434,false
,Lithuania,55.3500003,23.7499997,false
,Bulgaria,42.6073975,25.4856617,false
,Croatia,45.3658443,15.6575209,false
,Tunisia,33.8439408,9.400138,false
,Sudan,14.5844444,29.4917691,false
,Aruba,12.5013629,-69.9618475,false
,North Macedonia,41.6171214,21.7168387,false
,Myanmar,17.1750495,95.9999652,false
,Nicaragua,12.6090157,-85.2936911,false
,Tonga,-19.9160819,-175.202642,false
,Tanzania,-6.5247123,35.7878438,false
,Poland,52.215933,19.134422,false
,Lebanon,33.8750629,35.843409,false
,Turks and Caicos Islands,21.721746,-71.5527809,false
,Costa Rica,9.536456900000001,-84.17566257468567,false
,Jersey,49.2214561,-2.1358386,false
,Antigua and Barbuda,17.2234721,-61.9554608,false
,Belize,16.8259793,-88.7600927,false
,Namibia,-23.2335499,17.3231107,false
,Curacao,12.1176488,-68.9309263,false
,Greece,38.9953683,21.9877132,false
,Bermuda,32.2937417,-64.7815286,false
,Czechia,49.7439047,15.3381061,false
863-8631,Japan,32.4589299,130.1934636,true,699
Grad Split,Croatia,43.512019699999996,16.466213993134932,true,700
Cantón Puntarenas,Costa Rica,9.78774365,-85.05426219188635,true,701
Kamimashiki County,Japan,32.694647,130.9653095,true,702
Évora,Portugal,38.5707742,-7.9092808,true,703
Šibenik-Knin County,Croatia,43.9307763,16.0957115,true,704
Møre og Romsdal,Norway,62.8452777,7.518194072637362,true,705
Bezirk Schwaz,Austria,47.281631250000004,11.835223521404746,true,706
24826,South Korea,38.20629595,128.59170715,true,707
740-0018,Japan,34.1707185,132.2238776,true,708
273-0005,Japan,35.701406452,139.986139972,true,709
Saint Patrick,Grenada,12.1999339,-61.63806771473661,true,710
Jämtland County,Sweden,63.345222199999995,14.124985984451182,true,711
São Vicente,Cape Verde,16.84944115,-24.971879177747315,true,712
811-3209,Japan,33.7566497,130.4932569,true,713
Ishikari Subprefecture,Japan,43.2161612,141.4303012,true,714
Providenciales,Turks and Caicos Islands,21.8020614,-72.30044556984475,true,715
905-8540,Japan,26.5919599,127.9774759,true,716
Black Sea Region,Turkey,41.0665804,38.10578674324887,true,717
857-0028,Japan,33.1804902,129.7194947,true,718
Firuzkuh Central District,Iran,35.6370606,52.71074036324811,true,719
Okhotsk Subprefecture,Japan,44.0649929,143.9600858,true,720
646-8545,Japan,33.79285995,135.553500375,true,721
Yeongdeok-gun,South Korea,36.4149,129.3659,true,722
Saint Andrew,Saint Vincent and the Grenadines,13.19427945,-61.23999249755503,true,723
Bajo Guadalentín,Spain,37.729780149999996,-1.4331297090378154,true,724
Istria County,Croatia,45.1854803,13.9090255,true,725
Tarrafal de São Nicolau,Cape Verde,16.575416099999998,-24.334199248357958,true,726
Halland County,Sweden,56.9608104,12.85470664576265,true,727
243-0213,Japan,35.4751931,139.3163416,true,728
797-0007,Japan,33.3692339,132.5190216,true,729
21554,South Korea,37.4560254,126.70575295,true,730
Värmland County,Sweden,59.89076245,13.294761705669245,true,731
Southern Transdanubia,Hungary,46.3294871,17.9599372,true,732
Western Transdanubia,Hungary,47.1759579,16.8850579,true,733
811-3406,Japan,33.8050421,130.5621853,true,734
Tarrafal,Cape Verde,15.26645025,-23.72273385069002,true,735
Bar Municipality,Montenegro,42.136542899999995,19.150131846077812,true,736
513-8701,Japan,34.881822,136.5841952,true,737
299-5231,Japan,35.155413,140.3235056,true,738
2615,Australia,-35.2135102,149.0289646,true,739
Água Grande,São Tomé and Príncipe,0.34909880000000004,6.7100144164872795,true,740
Skåne County,Sweden,55.8479416,13.633711699754647,true,741
Carriacou and Petite Martinique,Grenada,12.4829985,-61.444843601342065,true,742
Cantagalo,São Tomé and Príncipe,0.2294719,6.680727874448079,true,743
2000,Slovenia,46.54532076634287,15.649351246189154,true,744
Beja,Portugal,38.0154479,-7.8650368,true,745
Pingtung County,Taiwan,22.6828017,120.487928,true,746
22041,Taiwan,25.015361132499997,121.46593553499999,true,747
Jönköping County,Sweden,57.535426,14.641181601671247,true,748
625-0087,Japan,35.4768546,135.3688144,true,749
53256,South Korea,34.8826265,128.6233321,true,750
Alba,Romania,46.0159362,23.54684966101923,true,751
Capital Region,Iceland,64.17271375,-21.566757543352054,true,752
Paul,Cape Verde,17.115033500000003,-25.01591510007068,true,753
Azores,Portugal,37.80855645,-25.473137391245295,true,754
Faro,Portugal,37.0162727,-7.9351771,true,755
Green Island,Taiwan,22.6616764,121.492596,true,756
Yaeyama,Japan,24.2637064,123.74587934847423,true,757
21485,Croatia,43.04497657875,16.08964463125,true,758
16490,South Korea,37.26304743076923,127.03011744615385,true,759
15353,South Korea,37.32009076666667,126.82967086666667,true,760
Minami-Matsuura County,Japan,32.927381,129.0536543,true,761
Kronoberg County,Sweden,56.80067805,14.411160995108743,true,762
176-0022,Japan,35.7420251,139.64078375,true,763
District of Canberra Central,Australia,-35.2865228,149.1246067953836,true,764
13437,South Korea,37.4198854,127.12638335,true,765
Bezirk Urfahr-Umgebung,Austria,48.42549355,14.26176075710051,true,766
Oshima Subprefecture,Japan,42.0397681,140.4943296,true,767
Varna,Bulgaria,43.2073873,27.9166653,true,768
Bezirk Gmunden,Austria,47.75813765,13.737727545551346,true,769
21450,Croatia,43.17046813333333,16.44989975,true,770
Oshika County,Japan,38.4590467,141.4590846,true,771
Jihomoravský kraj,Czechia,49.1249179,16.682771628867208,true,772
Bel Air,Seychelles,-4.6416205999999995,55.45186683433036,true,773
Cantón Bagaces,Costa Rica,10.51309385,-85.28449842274762,true,774
Coimbra,Portugal,40.2111931,-8.4294632,true,775
727,Taiwan,23.26777954869565,120.13119041336232,true,776
Higashimuro County,Japan,33.6314485,135.7953071,true,777
Constanța,Romania,44.172889600000005,28.621515355297706,true,778
Chubu Region,Japan,36.586766,137.34392238081682,true,779
Canton Wiltz,Luxembourg,49.94235,5.905121283181819,true,780
249-0006,Japan,35.2942227,139.57989773333333,true,781
Nordland,Norway,67.27564050000001,13.862360639913621,true,782
Viseu,Portugal,40.6574713,-7.9138664,true,783
44691,South Korea,35.53612998,129.31661678,true,784
Viken,Norway,59.9263265,9.904234519577855,true,785
Bezirk Reutte,Austria,47.36123525,10.545680446198158,true,786
Blekinge County,Sweden,56.12401225,15.40220875187768,true,787
897-0031,Japan,31.4179306,130.3243163,true,788
Leinster,Ireland,53.11846495,-6.991818291829787,true,789
Leiria,Portugal,39.7437902,-8.8071119,true,790
Porto,Portugal,41.1494512,-8.6107884,true,791
Dâmbovița,Romania,44.922456499999996,25.48195754328504,true,792
Great Plain and North,Hungary,47.2451479,20.940974590725858,true,793
Conamara Municipal District,Ireland,53.423987,-9.491635733074695,true,794
Boa Vista,Cape Verde,16.099508999999998,-22.800941096303617,true,795
Upravna Enota Ljubljana,Slovenia,45.998634249999995,14.526363931941875,true,796
Madeira,Portugal,32.751750099999995,-16.98174865726062,true,797
Viana do Castelo,Portugal,41.8803257,-8.523255293554344,true,798
Stockholm County,Sweden,59.3954053,18.665269528206764,true,799
Shiribeshi Subprefecture,Japan,42.9171937,140.6061215,true,800
030015,Romania,44.436110425,26.103388525,true,801
Taitung County,Taiwan,22.7553667,121.1506,true,802
Dalarna County,Sweden,61.060377849999995,14.215087316959057,true,803
Svendborg Municipality,Denmark,55.1240109,10.59488932785652,true,804
Saint James,Barbados,13.1863793,-59.62519195363248,true,805
HM 11,Bermuda,32.29330953195876,-64.78596868659794,true,806
Općina Šolta,Croatia,43.369524600000005,16.324983525597553,true,807
14998,South Korea,37.3813684090909,126.80264365454545,true,808
Upravna enota Piran / Unità amministrativa Pirano,Slovenia,45.52609405,13.553334861303124,true,809
The Municipal District of Kanturk-Mallow,Ireland,52.1849617,-8.923041491144371,true,810
10117,Germany,52.517090635459866,13.388082563476875,true,811
980-0803,Japan,38.26678164074074,140.86800609382715,true,812
KY1-9000,Cayman Islands,19.2930614,-81.3782516,true,813
14215,South Korea,37.4819278,126.863707,true,814
Gotland County,Sweden,57.64800165,18.59529524760007,true,815
County Donegal,Ireland,54.92075415,-7.952385214651309,true,816
99001,Ukraine,44.60822433333333,33.5382643,true,817
Sal,Cape Verde,16.720455649999998,-22.938676127026316,true,818
21480,Croatia,43.04973260714286,16.195365275,true,819
Cornwall County,Jamaica,18.189762950000002,-77.83770746546323,true,820
25522,South Korea,37.754811,128.87037185,true,821
Bezirk Linz-Land,Austria,48.2008519,14.317289620702855,true,822
108-0073,Japan,35.64939103703704,139.7416425,true,823
876-8585,Japan,32.959842,131.9000407,true,824
17020,South Korea,37.2403649,127.1810881,true,825
170-0014,Japan,35.7341523,139.710869,true,826
904-2292,Japan,26.3816531,127.85473305,true,827
4000,Slovenia,46.23861936664888,14.358140662771255,true,828
21420,Croatia,43.26042741214953,16.653070810280372,true,829
10000,Croatia,45.806363234385195,15.970945315846029,true,830
20095,Germany,53.55097772736842,9.999655113082706,true,831
West Cork,Ireland,51.6421335,-9.202704448241654,true,832
Sofia-City,Bulgaria,42.654318,23.33315718769336,true,833
Östergötland County,Sweden,58.36502495,16.044714169791558,true,834
Burgas,Bulgaria,42.444553,27.208264534658166,true,835
Jindo-gun,South Korea,34.4867515,126.2629264,true,836
Bezirk Imst,Austria,47.0792089,10.937703938967779,true,837
Saint Michael,Barbados,13.1182985,-59.60157828479271,true,838
Java,Indonesia,-6.71150765,110.63371366935611,true,839
Oslo,Norway,59.9133301,10.7389701,true,840
294-0045,Japan,34.99573525714286,139.86607160952383,true,841
Davao Region,Philippines,6.65116395,125.35752245260758,true,842
Saint Lucy,Barbados,13.3024068,-59.612944479753565,true,843
Tarragona,Spain,41.1172364,1.2546057,true,844
250-8555,Japan,35.264669,139.152275,true,845
811-2405,Japan,33.621069,130.57425485,true,846
51444,South Korea,35.2279537,128.68545,true,847
11147,South Korea,37.89559665,127.20089315,true,848
901-2710,Japan,26.2814386,127.7785127,true,849
Västernorrland County,Sweden,63.058969250000004,18.101368580066033,true,850
Gapyeong-gun,South Korea,37.8314,127.5098,true,851
Central Luzon,Philippines,15.390911849999998,120.68569951248944,true,852
Mimaropa,Philippines,13.01074805,121.4101402649656,true,853
Zadar County,Croatia,44.1294135,15.5432324,true,854
202201,Taiwan,25.1318685,121.7444069,true,855
KY1-1702,Cayman Islands,19.3243164,-81.176654,true,856
Fredericia Municipality,Denmark,55.56872025,9.669337217670764,true,857
Braga,Portugal,41.5510583,-8.4280045,true,858
Primorje-Gorski Kotar County,Croatia,45.4225937,14.6172032,true,859
Canton Remich,Luxembourg,49.5439502,6.299606255967977,true,860
906-0000,Japan,24.798507575,125.2824348,true,861
Mediterranean Region,Turkey,37.207821499999994,30.691922862102622,true,862
Saint Peter,Barbados,13.261977949999999,-59.620744419595624,true,863
Musandam Governorate,Oman,25.999736,56.2498627,true,864
36689,South Korea,36.570635936734696,128.7271297612245,true,865
Troms og Finnmark,Norway,69.86993469999999,21.827278548625912,true,866
Tobago,Trinidad and Tobago,11.24046155,-60.67200597857749,true,867
Metro Manila,Philippines,14.5736108,121.0329706,true,868
Yangyang-gun,South Korea,38.0751,128.6191,true,869
Lika-Senj County,Croatia,44.66818,15.3324696,true,870
24346,South Korea,37.8814601,127.7287546,true,871
Giurgiu,Romania,43.9043486,25.95918531705549,true,872
Setúbal,Portugal,38.5241783,-8.8932341,true,873
811-5192,Japan,33.7500515,129.6913078,true,874
Coastal Zone,Tanzania,-8.61072055,37.57038603387258,true,875
907-8501,Japan,24.3439358,124.1861835,true,876
Brussels-Capital,Belgium,50.83879505,4.375304132256188,true,877
Metropolialdea / Área Metropolitana,Spain,42.771015199999994,-1.6439665566854886,true,878
59674,South Korea,34.7565175,127.6592923,true,879
220009,Belarus,53.904129133333335,27.5642408,true,880
Bezirk Wels-Land,Austria,48.129120650000004,13.870001380093928,true,881
Iwami County,Japan,35.5395939,134.3692289,true,882
47545,South Korea,35.1804602,129.0755537,true,883
4020,Austria,48.28798230866739,14.29417427133928,true,884
Pointe La Rue,Seychelles,-4.673791850000001,55.515893211765274,true,885
Beau Vallon,Seychelles,-4.605056299999999,55.43572319304134,true,886
Kunigami,Japan,26.72122615,128.0283396807988,true,887
54078,South Korea,35.96818867228261,126.73545713097825,true,888
Higashitsugaru,Japan,41.0623858,140.6247712,true,889
251-0876,Japan,35.36071475,139.4671494,true,890
50730,Malaysia,3.1582399,101.6942819,true,891
997-0035,Japan,38.72712175,139.82654540714285,true,892
901-0345,Japan,26.0975433,127.6777668,true,893
110,Taiwan,25.035102000422363,121.56996996784213,true,894
788-0013,Japan,32.91854813333333,132.701232,true,895
870-0046,Japan,33.239889075,131.608062375,true,896
517-0501,Japan,34.32681364545454,136.82324554545454,true,897
Central Transdanubia,Hungary,47.2268957,18.0267315,true,898
Nakagami,Japan,26.40293425,127.67380814421989,true,899
GY10 1SF,Guernsey,49.435718,-2.3630195,true,900
Shire of Christmas Island,Australia,-10.49150645,105.61628807168933,true,901
5000,Slovenia,45.9551226623602,13.654323425414578,true,902
Dubrovnik-Neretva County,Croatia,42.8143166,17.3746628,true,903
238-0298,Japan,35.1094958,139.5881677,true,904
Lisbon,Portugal,38.7077507,-9.1365919,true,905
Ilfov,Romania,44.5017074,26.244907651159284,true,906
Munster,Ireland,52.307621600000004,-8.570897272891862,true,907
Dobrich,Bulgaria,43.66377745,27.90021225939759,true,908
Marmara Region,Turkey,40.5885807,28.426908222794587,true,909
25914,South Korea,37.4499417,129.1652895,true,910
juancho,Dominican Republic,17.8967398,-71.3356753,true,911
701-4292,Japan,34.6649261,134.0927986,true,912
South Caribbean Coast Autonomous Region,Nicaragua,12.558473,-84.1015992,true,913
Ashigarashimo County,Japan,35.202251,139.0624079,true,914
KY1-1601,Cayman Islands,19.3463796,-81.1848291,true,915
Oki County,Japan,36.2073159,133.220607,true,916
1160,Venezuela,10.595266975,-66.92489024583334,true,917
Tyrol,Austria,47.223193,11.5261028,true,918
Pyeongchang-gun,South Korea,37.3705,128.3903,true,919
Barcelona,Spain,41.3828939,2.1774322,true,920
289-2521,Japan,35.71472475,140.6496394,true,921
900-8585,Japan,26.2124569,127.6857312,true,922
Rushen,Isle of Man,54.0888392,-4.7402716,true,923
Girona,Spain,41.9793006,2.8199439,true,924
Cantón Santa Cruz,Costa Rica,10.23575875,-85.66996320389299,true,925
Bezirk Grieskirchen,Austria,48.2796908,13.773416546419174,true,926
Bonaire,Netherlands,12.1684798,-68.24703234151355,true,927
Općina Seget,Croatia,43.5709267,16.170560617683666,true,928
Porto Novo,Cape Verde,17.0174637,-25.2004042229527,true,929
Shimajiri,Japan,26.36572625,127.0460254079185,true,930
Philipsburg,Sint Maarten,18.0250713,-63.0483073,true,931
Grand Turk,Turks and Caicos Islands,21.467964000000002,-71.13872175290959,true,932
Mureș,Romania,46.60646055,24.62467862914629,true,933
Kumage County,Japan,33.9090551,132.0841641,true,934
Southeastern Anatolia Region,Turkey,37.67354105,40.47160082753217,true,935
Trøndelag,Norway,63.87759235,10.195050547141093,true,936
Općina Okrug,Croatia,43.4934751,16.22128569663055,true,937
Åland Islands,Finland,60.2166218,19.9438638,true,938
100-0005,Japan,35.681732403846155,139.76531038076922,true,939
Oranjestad (city),Netherlands,12.521740099999999,-70.02818526266967,true,940
Nishimuro County,Japan,33.6246922,135.5136283,true,941
Minami-Uwa County,Japan,32.98957,132.5984926,true,942
53039,South Korea,34.85669375,128.43328825,true,943
Campo de Cartagena y Mar Menor,Spain,37.7450493,-1.0608186519683611,true,944
Vestland,Norway,60.9291011,6.107886941976156,true,945
Saba,Netherlands,17.632196999999998,-63.23564245991936,true,946
Cantón Garabito,Costa Rica,9.70724425,-84.62197277133845,true,947
English River,Seychelles,-4.60920415,55.45184295833204,true,948
South Great Plain,Hungary,46.483677,20.1419252,true,949
Bezirk Innsbruck-Land,Austria,47.2065094,11.383694590035379,true,950
887-0021,Japan,31.6045838,131.3784185,true,951
01001,Ukraine,50.449957211612904,30.49677067354839,true,952
Uljin-gun,South Korea,36.993,129.4006,true,953
37683,South Korea,36.0190154,129.3432304,true,954
10460,South Korea,37.6582381,126.83184897999999,true,955
781-7185,Japan,33.2649665,134.1491181,true,956
Oshima County,Japan,33.8921444,132.345255,true,957
Kalmar County,Sweden,57.02784235,16.575102000807693,true,958
Virgin Gorda,British Virgin Islands,18.465439,-64.41546930691665,true,959
Saint David,Saint Vincent and the Grenadines,13.31836405,-61.20087857371814,true,960
135-0016,Japan,35.669156351666665,139.81662641,true,961
4260,Slovenia,46.36832859645669,14.107714860911138,true,962
Södermanland County,Sweden,58.96492145,16.72940122379656,true,963
KY1-1105,Cayman Islands,19.294849466666665,-81.2834396,true,964
Goseong-gun,South Korea,34.9732784,128.322233,true,965
184-0004,Japan,35.70178644615385,139.50520516923078,true,966
21400,Croatia,43.38280178598131,16.549551406542058,true,967
Harju maakond,Estonia,59.409009,24.736957184871756,true,968
6020,Austria,47.267284781023676,11.39552657103064,true,969
998-0043,Japan,38.91377691666667,139.8374154,true,970
Bezirk Ried im Innkreis,Austria,48.2116421,13.472751586033063,true,971
Bezirk Vöcklabruck,Austria,47.947316099999995,13.550417883017834,true,972
Cantón Liberia,Costa Rica,10.691642949999999,-85.49855409841476,true,973
Praia,Cape Verde,14.9162811,-23.5095095,true,974
puerto nuevo  (trudille),Dominican Republic,17.7906035,-71.5712982,true,975
Kolding Municipality,Denmark,55.469026549999995,9.468380654585754,true,976
Västra Götaland County,Sweden,58.215850200000006,12.651820794914073,true,977
Olt,Romania,44.29140195,24.46610792597381,true,978
Sønderborg Municipality,Denmark,54.9680815,9.931922743249796,true,979
Split-Dalmatia County,Croatia,43.5003407,16.8156193,true,980
Iruñerria / Comarca de Pamplona,Spain,42.85719,-1.7189261057994434,true,981
Vâlcea,Romania,45.0404536,24.15387190277292,true,982
Ruse,Bulgaria,43.8350657,25.957973495516235,true,983
Rogaland,Norway,58.93631375,5.805878643040238,true,984
Canary Islands,Spain,28.2935785,-16.621447121144122,true,985
Zagreb County,Croatia,45.7017634,16.2347136,true,986
Castile and León,Spain,41.8037172,-4.7471726,true,987
Prahova,Romania,45.10875455,26.03783489062146,true,988
859-3233,Japan,33.1276579,129.797576,true,989
Ústecký kraj,Czechia,50.5663266,13.820670539566608,true,990
Budva Municipality,Montenegro,42.25938445,18.92016647732558,true,991
Canton Esch-sur-Alzette,Luxembourg,49.518851999999995,5.9992771103096345,true,992
Herceg Novi Municipality,Montenegro,42.5043332,18.544007742138888,true,993
47899,San Marino,43.96964181265696,12.478019537066801,true,994
Aegean Region,Turkey,38.05673795,28.554327662127463,true,995
21215,Croatia,43.55308362608696,16.36365905652174,true,996
21405,Croatia,43.32211381176471,16.442776505882353,true,997
758-0033,Japan,34.413685,131.3969481,true,998
KY1-1401,Cayman Islands,19.389456,-81.4047778,true,999
21413,Croatia,43.33597931111111,16.83634715959596,true,1000
63572,South Korea,33.2480979,126.5113215,true,1001
Other British Virgin Islands,British Virgin Islands,18.47680285,-64.5708572778067,true,1002
Bimini,Bahamas,25.720065,-79.2744573,true,1003
519-3696,Japan,34.0707815,136.1911394,true,1004
Central Visayas,Philippines,10.2611289,123.8693264355247,true,1005
63122,South Korea,33.48774082,126.49697606,true,1006
050013,Kazakhstan,43.239210290322575,76.94250392258064,true,1007
Watarai County,Japan,34.3486007,136.4997498,true,1008
Mainland Finland,Finland,64.7802687,26.984849530411964,true,1009
04523,South Korea,37.56675116666667,126.9794428,true,1010
20116,Maldives,4.176727,73.5126187,true,1011
1010,Austria,48.20871394037221,16.370587275384615,true,1012
Uppsala County,Sweden,60.14535905,17.62434912488589,true,1013
Shire of Cocos (Keeling) Islands,Australia,-12.141876,96.86770676859504,true,1014
022-0004,Japan,39.0928879,141.7069723,true,1015
Kili,Marshall Islands,5.6433026,169.1225199,true,1016
New Caledonia,France,-21.3019905,165.4880773,true,1017
,Mexico,23.6585116,-102.0077097,false
Ulleung-gun,South Korea,37.4845293,130.9058854,true,1018
بخش مرکزی شهرستان تهران,Iran,35.6995781,51.44309901241166,true,1019
Västerbotten County,Sweden,64.72847095,18.553323468349845,true,1020
Kilifi County,Kenya,-3.15073925,39.67507159193717,true,1021
